$GNGGA,112619.300,4726.5583,N,01911.1196,E,1,17,0.6,145.3,M,45.3,M,,0000*47
$GNRMC,112619.300,A,4726.5583,N,01911.1196,E,004.5,031.8,070615,,,A*7A
$GNGGA,112619.400,4726.5584,N,01911.1197,E,1,17,0.6,145.3,M,45.3,M,,0000*46
$GNRMC,112619.400,A,4726.5584,N,01911.1197,E,004.7,031.0,070615,,,A*71
$GNGGA,112619.500,4726.5585,N,01911.1198,E,1,17,0.6,145.2,M,45.3,M,,0000*48
$GNRMC,112619.500,A,4726.5585,N,01911.1198,E,004.8,030.8,070615,,,A*78
$GNGGA,112619.600,4726.5586,N,01911.1199,E,1,17,0.6,145.2,M,45.3,M,,0000*49
$GNRMC,112619.600,A,4726.5586,N,01911.1199,E,004.6,029.5,070615,,,A*72
$GNGGA,112619.700,4726.5587,N,01911.1200,E,1,17,0.6,145.2,M,45.3,M,,0000*4A
$GNRMC,112619.700,A,4726.5587,N,01911.1200,E,004.5,032.6,070615,,,A*7B
$GNGGA,112619.800,4726.5588,N,01911.1201,E,1,17,0.6,145.2,M,45.3,M,,0000*4B
$GNRMC,112619.800,A,4726.5588,N,01911.1201,E,004.8,031.1,070615,,,A*73
$GNGGA,112619.900,4726.5590,N,01911.1202,E,1,17,0.6,145.2,M,45.3,M,,0000*40
$GNRMC,112619.900,A,4726.5590,N,01911.1202,E,004.7,032.5,070615,,,A*70
$GNGGA,112620.000,4726.5591,N,01911.1203,E,1,16,0.6,145.2,M,45.3,M,,0000*42
$GNRMC,112620.000,A,4726.5591,N,01911.1203,E,004.9,031.6,070615,,,A*7D
$GNGGA,112620.100,4726.5592,N,01911.1204,E,1,16,0.6,145.2,M,45.3,M,,0000*47
$GNRMC,112620.100,A,4726.5592,N,01911.1204,E,004.7,031.4,070615,,,A*74
$GNGGA,112620.200,4726.5593,N,01911.1205,E,1,16,0.6,145.2,M,45.3,M,,0000*44
$GNGLL,4726.5593,N,01911.1205,E,112620.200,A,A*40
$GNGSA,A,3,02,12,24,15,17,14,06,25,,,,,1.1,0.6,0.9*22
$GNGSA,A,3,66,85,67,84,76,77,86,68,,,,,1.1,0.6,0.9*22
$GNRMC,112620.200,A,4726.5593,N,01911.1205,E,004.8,032.2,070615,,,A*7D
$GNVTG,032.2,T,,M,004.8,N,008.9,K,A*1D
$GNZDA,112620.200,07,06,2015,00,00*4B
$GNGGA,112620.300,4726.5594,N,01911.1206,E,1,16,0.6,145.2,M,45.3,M,,0000*41
$GNRMC,112620.300,A,4726.5594,N,01911.1206,E,004.8,032.7,070615,,,A*7D
$GNGGA,112620.400,4726.5595,N,01911.1207,E,1,16,0.6,145.2,M,45.3,M,,0000*46
$GNRMC,112620.400,A,4726.5595,N,01911.1207,E,004.9,032.6,070615,,,A*7A
$GNGGA,112620.500,4726.5596,N,01911.1208,E,1,16,0.6,145.2,M,45.3,M,,0000*4B
$GNRMC,112620.500,A,4726.5596,N,01911.1208,E,004.8,033.3,070615,,,A*72
$GNGGA,112620.600,4726.5597,N,01911.1209,E,1,16,0.6,145.2,M,45.3,M,,0000*48
$GNRMC,112620.600,A,4726.5597,N,01911.1209,E,005.0,032.5,070615,,,A*7F
$GNGGA,112620.700,4726.5599,N,01911.1210,E,1,16,0.6,145.2,M,45.3,M,,0000*4F
$GNRMC,112620.700,A,4726.5599,N,01911.1210,E,005.0,032.9,070615,,,A*74
$GNGGA,112620.800,4726.5600,N,01911.1211,E,1,16,0.6,145.2,M,45.3,M,,0000*42
$GNRMC,112620.800,A,4726.5600,N,01911.1211,E,005.0,032.8,070615,,,A*78
$GNGGA,112620.900,4726.5601,N,01911.1212,E,1,16,0.6,145.3,M,45.3,M,,0000*40
$GNRMC,112620.900,A,4726.5601,N,01911.1212,E,004.9,033.1,070615,,,A*7B
$GNGGA,112621.000,4726.5602,N,01911.1213,E,1,16,0.6,145.3,M,45.3,M,,0000*4A
$GNRMC,112621.000,A,4726.5602,N,01911.1213,E,004.9,034.1,070615,,,A*76
$GNGGA,112621.100,4726.5603,N,01911.1214,E,1,16,0.6,145.3,M,45.3,M,,0000*4D
$GNRMC,112621.100,A,4726.5603,N,01911.1214,E,005.0,035.0,070615,,,A*79
$GNGGA,112621.200,4726.5604,N,01911.1216,E,1,16,0.6,145.3,M,45.3,M,,0000*4B
$GNGLL,4726.5604,N,01911.1216,E,112621.200,A,A*4E
$GNGSA,A,3,02,12,24,15,17,14,06,25,,,,,1.1,0.6,0.9*22
$GNGSA,A,3,66,85,67,84,76,77,86,68,,,,,1.1,0.6,0.9*22
$GNRMC,112621.200,A,4726.5604,N,01911.1216,E,005.0,034.4,070615,,,A*7A
$GNVTG,034.4,T,,M,005.0,N,009.3,K,A*1F
$GNZDA,112621.200,07,06,2015,00,00*4A
$GNGGA,112621.300,4726.5605,N,01911.1217,E,1,16,0.6,145.3,M,45.3,M,,0000*4A
$GNRMC,112621.300,A,4726.5605,N,01911.1217,E,005.1,033.0,070615,,,A*79
$GNGGA,112621.400,4726.5607,N,01911.1218,E,1,16,0.6,145.3,M,45.3,M,,0000*40
$GNRMC,112621.400,A,4726.5607,N,01911.1218,E,005.0,035.1,070615,,,A*75
$GNGGA,112621.500,4726.5608,N,01911.1219,E,1,16,0.6,145.3,M,45.3,M,,0000*4F
$GNRMC,112621.500,A,4726.5608,N,01911.1219,E,004.9,034.0,070615,,,A*72
$GNGGA,112621.600,4726.5609,N,01911.1220,E,1,16,0.6,145.3,M,45.3,M,,0000*47
$GNRMC,112621.600,A,4726.5609,N,01911.1220,E,005.1,035.1,070615,,,A*73
$GNGGA,112621.700,4726.5610,N,01911.1221,E,1,16,0.6,145.3,M,45.3,M,,0000*4F
$GNRMC,112621.700,A,4726.5610,N,01911.1221,E,005.1,034.3,070615,,,A*78
$GNGGA,112621.800,4726.5611,N,01911.1222,E,1,16,0.6,145.3,M,45.3,M,,0000*42
$GNRMC,112621.800,A,4726.5611,N,01911.1222,E,005.0,033.7,070615,,,A*77
$GNGGA,112621.900,4726.5612,N,01911.1223,E,1,16,0.6,145.3,M,45.3,M,,0000*41
$GNRMC,112621.900,A,4726.5612,N,01911.1223,E,005.1,032.7,070615,,,A*74
$GNGGA,112622.000,4726.5614,N,01911.1224,E,1,17,0.6,145.3,M,45.3,M,,0000*4B
$GNRMC,112622.000,A,4726.5614,N,01911.1224,E,004.9,034.0,070615,,,A*77
$GNGGA,112622.100,4726.5615,N,01911.1225,E,1,17,0.6,145.3,M,45.3,M,,0000*4A
$GNRMC,112622.100,A,4726.5615,N,01911.1225,E,005.0,033.6,070615,,,A*7F
$GNGGA,112622.200,4726.5616,N,01911.1227,E,1,17,0.6,145.4,M,45.3,M,,0000*4F
$GNGLL,4726.5616,N,01911.1227,E,112622.200,A,A*4C
$GNGSA,A,3,02,12,24,15,17,14,06,25,,,,,1.1,0.6,0.9*22
$GNGSA,A,3,75,66,85,67,84,76,77,86,68,,,,1.1,0.6,0.9*20
$GPGSV,2,1,08,24,84,169,49,12,63,278,46,17,27,047,32,25,24,264,44*72
$GPGSV,2,2,08,14,23,315,35,06,23,098,32,15,17,192,38,02,13,139,35*7D
$GLGSV,3,1,10,76,63,336,36,85,52,057,46,86,51,156,48,75,46,093,27*60
$GLGSV,3,2,10,67,20,308,30,77,14,303,28,66,12,256,37,84,11,025,24*6A
$GLGSV,3,3,10,68,05,357,27,87,04,188,19*69
$GNRMC,112622.200,A,4726.5616,N,01911.1227,E,005.1,033.5,070615,,,A*7F
$GNVTG,033.5,T,,M,005.1,N,009.4,K,A*1F
$GNZDA,112622.200,07,06,2015,00,00*49
$GNGGA,112622.300,4726.5617,N,01911.1228,E,1,17,0.6,145.4,M,45.3,M,,0000*40
$GNRMC,112622.300,A,4726.5617,N,01911.1228,E,004.8,033.4,070615,,,A*79
$GNGGA,112622.400,4726.5618,N,01911.1229,E,1,17,0.6,145.3,M,45.3,M,,0000*4E
$GNRMC,112622.400,A,4726.5618,N,01911.1229,E,005.1,034.0,070615,,,A*7B
$GNGGA,112622.500,4726.5619,N,01911.1230,E,1,17,0.6,145.3,M,45.3,M,,0000*46
$GNRMC,112622.500,A,4726.5619,N,01911.1230,E,005.2,035.0,070615,,,A*71
$GNGGA,112622.600,4726.5621,N,01911.1231,E,1,17,0.6,145.3,M,45.3,M,,0000*4F
$GNRMC,112622.600,A,4726.5621,N,01911.1231,E,005.2,033.1,070615,,,A*7F
$GNGGA,112622.700,4726.5622,N,01911.1232,E,1,17,0.6,145.3,M,45.3,M,,0000*4E
$GNRMC,112622.700,A,4726.5622,N,01911.1232,E,005.1,034.0,070615,,,A*7B
$GNGGA,112622.800,4726.5623,N,01911.1233,E,1,17,0.6,145.3,M,45.3,M,,0000*41
$GNRMC,112622.800,A,4726.5623,N,01911.1233,E,005.3,033.8,070615,,,A*79
$GNGGA,112622.900,4726.5624,N,01911.1234,E,1,17,0.6,145.3,M,45.3,M,,0000*40
$GNRMC,112622.900,A,4726.5624,N,01911.1234,E,005.3,032.2,070615,,,A*73
$GNGGA,112623.000,4726.5626,N,01911.1235,E,1,17,0.6,145.3,M,45.3,M,,0000*4B
$GNRMC,112623.000,A,4726.5626,N,01911.1235,E,005.3,033.4,070615,,,A*7F
$GNGGA,112623.100,4726.5627,N,01911.1237,E,1,17,0.6,145.3,M,45.3,M,,0000*49
$GNRMC,112623.100,A,4726.5627,N,01911.1237,E,005.2,034.1,070615,,,A*7E
$GNGGA,112623.200,4726.5628,N,01911.1238,E,1,17,0.6,145.3,M,45.3,M,,0000*4A
$GNGLL,4726.5628,N,01911.1238,E,112623.200,A,A*4E
$GNGSA,A,3,02,12,24,15,17,14,06,25,,,,,1.1,0.6,0.9*22
$GNGSA,A,3,75,66,85,67,84,76,77,86,68,,,,1.1,0.6,0.9*20
$GNRMC,112623.200,A,4726.5628,N,01911.1238,E,005.4,032.6,070615,,,A*7A
$GNVTG,032.6,T,,M,005.4,N,010.0,K,A*14
$GNZDA,112623.200,07,06,2015,00,00*48
$GNGGA,112623.300,4726.5629,N,01911.1239,E,1,17,0.6,145.3,M,45.3,M,,0000*4B
$GNRMC,112623.300,A,4726.5629,N,01911.1239,E,005.4,033.7,070615,,,A*7B
$GNGGA,112623.400,4726.5631,N,01911.1240,E,1,17,0.6,145.3,M,45.3,M,,0000*4B
$GNRMC,112623.400,A,4726.5631,N,01911.1240,E,005.3,034.9,070615,,,A*75
$GNGGA,112623.500,4726.5632,N,01911.1241,E,1,17,0.6,145.3,M,45.3,M,,0000*48
$GNRMC,112623.500,A,4726.5632,N,01911.1241,E,005.6,034.3,070615,,,A*79
$GNGGA,112623.600,4726.5633,N,01911.1242,E,1,17,0.6,145.3,M,45.3,M,,0000*49
$GNRMC,112623.600,A,4726.5633,N,01911.1242,E,005.3,032.9,070615,,,A*71
$GNGGA,112623.700,4726.5634,N,01911.1244,E,1,17,0.6,145.3,M,45.3,M,,0000*49
$GNRMC,112623.700,A,4726.5634,N,01911.1244,E,005.4,033.0,070615,,,A*7E
$GNGGA,112623.800,4726.5635,N,01911.1245,E,1,17,0.6,145.3,M,45.3,M,,0000*46
$GNRMC,112623.800,A,4726.5635,N,01911.1245,E,005.4,032.6,070615,,,A*76
$GNGGA,112623.900,4726.5637,N,01911.1246,E,1,17,0.6,145.3,M,45.3,M,,0000*46
$GNRMC,112623.900,A,4726.5637,N,01911.1246,E,005.5,032.4,070615,,,A*75
$GNGGA,112624.000,4726.5638,N,01911.1247,E,1,17,0.6,145.3,M,45.3,M,,0000*46
$GNRMC,112624.000,A,4726.5638,N,01911.1247,E,005.5,033.6,070615,,,A*76
$GNGGA,112624.100,4726.5639,N,01911.1248,E,1,17,0.6,145.3,M,45.3,M,,0000*49
$GNRMC,112624.100,A,4726.5639,N,01911.1248,E,005.7,033.9,070615,,,A*74
$GNGGA,112624.200,4726.5641,N,01911.1250,E,1,17,0.6,145.4,M,45.3,M,,0000*4B
$GNGLL,4726.5641,N,01911.1250,E,112624.200,A,A*48
$GNGSA,A,3,02,12,24,15,17,14,06,25,,,,,1.1,0.6,0.9*22
$GNGSA,A,3,75,66,85,67,84,76,77,86,68,,,,1.1,0.6,0.9*20
$GNRMC,112624.200,A,4726.5641,N,01911.1250,E,005.6,033.8,070615,,,A*71
$GNVTG,033.8,T,,M,005.6,N,010.4,K,A*1D
$GNZDA,112624.200,07,06,2015,00,00*4F
$GNGGA,112624.300,4726.5642,N,01911.1251,E,1,17,0.6,145.4,M,45.3,M,,0000*48
$GNRMC,112624.300,A,4726.5642,N,01911.1251,E,005.7,033.3,070615,,,A*78
$GNGGA,112624.400,4726.5643,N,01911.1252,E,1,17,0.6,145.4,M,45.3,M,,0000*4D
$GNRMC,112624.400,A,4726.5643,N,01911.1252,E,005.7,033.4,070615,,,A*7A
$GNGGA,112624.500,4726.5644,N,01911.1253,E,1,17,0.6,145.4,M,45.3,M,,0000*4A
$GNRMC,112624.500,A,4726.5644,N,01911.1253,E,005.8,032.3,070615,,,A*74
$GNGGA,112624.600,4726.5646,N,01911.1254,E,1,17,0.6,145.4,M,45.3,M,,0000*4C
$GNRMC,112624.600,A,4726.5646,N,01911.1254,E,005.8,033.3,070615,,,A*73
$GNGGA,112624.700,4726.5647,N,01911.1256,E,1,17,0.6,145.4,M,45.3,M,,0000*4E
$GNRMC,112624.700,A,4726.5647,N,01911.1256,E,005.9,033.0,070615,,,A*73
$GNGGA,112624.800,4726.5649,N,01911.1257,E,1,17,0.6,145.4,M,45.3,M,,0000*4E
$GNRMC,112624.800,A,4726.5649,N,01911.1257,E,005.8,033.2,070615,,,A*70
$GNGGA,112624.900,4726.5650,N,01911.1258,E,1,17,0.6,145.4,M,45.3,M,,0000*48
$GNRMC,112624.900,A,4726.5650,N,01911.1258,E,006.0,031.4,070615,,,A*79
$GNGGA,112625.000,4726.5651,N,01911.1260,E,1,17,0.6,145.4,M,45.3,M,,0000*4A
$GNRMC,112625.000,A,4726.5651,N,01911.1260,E,005.8,032.7,070615,,,A*70
$GNGGA,112625.100,4726.5653,N,01911.1261,E,1,17,0.6,145.4,M,45.3,M,,0000*48
$GNRMC,112625.100,A,4726.5653,N,01911.1261,E,006.1,032.5,070615,,,A*7A
$GNGGA,112625.200,4726.5654,N,01911.1262,E,1,17,0.6,145.4,M,45.3,M,,0000*4F
$GNGLL,4726.5654,N,01911.1262,E,112625.200,A,A*4C
$GNGSA,A,3,02,12,24,15,17,14,06,25,,,,,1.1,0.6,0.9*22
$GNGSA,A,3,75,66,85,67,84,76,77,86,68,,,,1.1,0.6,0.9*20
$GPGSV,2,1,08,24,84,169,49,12,63,278,46,17,27,047,31,25,24,264,44*71
$GPGSV,2,2,08,14,23,315,35,06,23,098,27,15,17,192,36,02,13,139,34*76
$GLGSV,3,1,10,76,63,336,37,85,52,057,46,86,51,156,48,75,46,093,28*6E
$GLGSV,3,2,10,67,20,308,32,77,14,303,26,66,12,256,39,84,11,025,26*6A
$GLGSV,3,3,10,68,05,357,27,87,04,188,27*64
$GNRMC,112625.200,A,4726.5654,N,01911.1262,E,006.1,033.4,070615,,,A*7D
$GNVTG,033.4,T,,M,006.1,N,011.4,K,A*14
$GNZDA,112625.200,07,06,2015,00,00*4E
$GNGGA,112625.300,4726.5656,N,01911.1263,E,1,17,0.6,145.4,M,45.3,M,,0000*4D
$GNRMC,112625.300,A,4726.5656,N,01911.1263,E,006.1,032.3,070615,,,A*79
$GNGGA,112625.400,4726.5657,N,01911.1265,E,1,17,0.6,145.4,M,45.3,M,,0000*4D
$GNRMC,112625.400,A,4726.5657,N,01911.1265,E,006.1,032.5,070615,,,A*7F
$GNGGA,112625.500,4726.5658,N,01911.1266,E,1,17,0.6,145.4,M,45.3,M,,0000*40
$GNRMC,112625.500,A,4726.5658,N,01911.1266,E,006.4,032.8,070615,,,A*7A
$GNGGA,112625.600,4726.5660,N,01911.1268,E,1,17,0.6,145.4,M,45.3,M,,0000*46
$GNRMC,112625.600,A,4726.5660,N,01911.1268,E,006.1,033.0,070615,,,A*70
$GNGGA,112625.700,4726.5661,N,01911.1269,E,1,17,0.6,145.4,M,45.3,M,,0000*47
$GNRMC,112625.700,A,4726.5661,N,01911.1269,E,006.3,034.1,070615,,,A*75
$GNGGA,112625.800,4726.5663,N,01911.1270,E,1,17,0.6,145.4,M,45.3,M,,0000*42
$GNRMC,112625.800,A,4726.5663,N,01911.1270,E,006.4,033.3,070615,,,A*72
$GNGGA,112625.900,4726.5664,N,01911.1272,E,1,17,0.6,145.4,M,45.3,M,,0000*46
$GNRMC,112625.900,A,4726.5664,N,01911.1272,E,006.5,033.0,070615,,,A*74
$GNGGA,112626.000,4726.5666,N,01911.1273,E,1,17,0.6,145.4,M,45.3,M,,0000*4F
$GNRMC,112626.000,A,4726.5666,N,01911.1273,E,006.6,032.6,070615,,,A*79
$GNGGA,112626.100,4726.5667,N,01911.1274,E,1,17,0.6,145.4,M,45.3,M,,0000*48
$GNRMC,112626.100,A,4726.5667,N,01911.1274,E,006.8,032.2,070615,,,A*74
$GNGGA,112626.200,4726.5669,N,01911.1276,E,1,17,0.6,145.4,M,45.3,M,,0000*47
$GNGLL,4726.5669,N,01911.1276,E,112626.200,A,A*44
$GNGSA,A,3,02,12,24,15,17,14,06,25,,,,,1.1,0.6,0.9*22
$GNGSA,A,3,75,66,85,67,84,76,77,86,68,,,,1.1,0.6,0.9*20
$GNRMC,112626.200,A,4726.5669,N,01911.1276,E,007.1,032.6,070615,,,A*77
$GNVTG,032.6,T,,M,007.1,N,013.2,K,A*12
$GNZDA,112626.200,07,06,2015,00,00*4D
$GNGGA,112626.300,4726.5671,N,01911.1277,E,1,17,0.6,145.4,M,45.3,M,,0000*4E
$GNRMC,112626.300,A,4726.5671,N,01911.1277,E,007.2,032.4,070615,,,A*7F
$GNGGA,112626.400,4726.5672,N,01911.1279,E,1,17,0.6,145.4,M,45.3,M,,0000*44
$GNRMC,112626.400,A,4726.5672,N,01911.1279,E,007.5,032.5,070615,,,A*73
$GNGGA,112626.500,4726.5674,N,01911.1281,E,1,17,0.6,145.4,M,45.3,M,,0000*44
$GNRMC,112626.500,A,4726.5674,N,01911.1281,E,007.7,032.6,070615,,,A*72
$GNGGA,112626.600,4726.5676,N,01911.1282,E,1,17,0.6,145.5,M,45.3,M,,0000*47
$GNRMC,112626.600,A,4726.5676,N,01911.1282,E,007.9,032.0,070615,,,A*78
$GNGGA,112626.700,4726.5678,N,01911.1284,E,1,17,0.6,145.5,M,45.3,M,,0000*4E
$GNRMC,112626.700,A,4726.5678,N,01911.1284,E,008.0,032.1,070615,,,A*76
$GNGGA,112626.800,4726.5680,N,01911.1286,E,1,17,0.6,145.5,M,45.3,M,,0000*44
$GNRMC,112626.800,A,4726.5680,N,01911.1286,E,008.3,032.7,070615,,,A*79
$GNGGA,112626.900,4726.5682,N,01911.1287,E,1,17,0.6,145.5,M,45.3,M,,0000*46
$GNRMC,112626.900,A,4726.5682,N,01911.1287,E,008.3,032.9,070615,,,A*75
$GNGGA,112627.000,4726.5684,N,01911.1289,E,1,17,0.6,145.5,M,45.3,M,,0000*46
$GNRMC,112627.000,A,4726.5684,N,01911.1289,E,008.4,032.8,070615,,,A*73
$GNGGA,112627.100,4726.5686,N,01911.1291,E,1,17,0.6,145.5,M,45.3,M,,0000*4C
$GNRMC,112627.100,A,4726.5686,N,01911.1291,E,008.3,031.9,070615,,,A*7C
$GNGGA,112627.200,4726.5688,N,01911.1293,E,1,17,0.6,145.5,M,45.3,M,,0000*43
$GNGLL,4726.5688,N,01911.1293,E,112627.200,A,A*41
$GNGSA,A,3,02,12,24,15,17,14,06,25,,,,,1.1,0.6,0.9*22
$GNGSA,A,3,75,66,85,67,84,76,77,86,68,,,,1.1,0.6,0.9*20
$GNRMC,112627.200,A,4726.5688,N,01911.1293,E,008.2,032.0,070615,,,A*78
$GNVTG,032.0,T,,M,008.2,N,015.2,K,A*1E
$GNZDA,112627.200,07,06,2015,00,00*4C
$GNGGA,112627.300,4726.5690,N,01911.1294,E,1,17,0.6,145.5,M,45.3,M,,0000*4C
$GNRMC,112627.300,A,4726.5690,N,01911.1294,E,008.3,032.3,070615,,,A*75
$GNGGA,112627.400,4726.5691,N,01911.1296,E,1,17,0.6,145.5,M,45.3,M,,0000*48
$GNRMC,112627.400,A,4726.5691,N,01911.1296,E,008.2,032.3,070615,,,A*70
$GNGGA,112627.500,4726.5693,N,01911.1298,E,1,17,0.6,145.5,M,45.3,M,,0000*45
$GNRMC,112627.500,A,4726.5693,N,01911.1298,E,008.2,032.9,070615,,,A*77
$GNGGA,112627.600,4726.5695,N,01911.1300,E,1,17,0.6,145.5,M,45.3,M,,0000*40
$GNRMC,112627.600,A,4726.5695,N,01911.1300,E,008.2,032.5,070615,,,A*7E
$GNGGA,112627.700,4726.5697,N,01911.1301,E,1,17,0.6,145.5,M,45.3,M,,0000*42
$GNRMC,112627.700,A,4726.5697,N,01911.1301,E,008.0,032.3,070615,,,A*78
$GNGGA,112627.800,4726.5699,N,01911.1303,E,1,17,0.6,145.5,M,45.3,M,,0000*41
$GNRMC,112627.800,A,4726.5699,N,01911.1303,E,008.3,032.9,070615,,,A*72
$GNGGA,112627.900,4726.5701,N,01911.1305,E,1,17,0.6,145.5,M,45.3,M,,0000*46
$GNRMC,112627.900,A,4726.5701,N,01911.1305,E,008.2,032.2,070615,,,A*7F
$GNGGA,112628.000,4726.5703,N,01911.1307,E,1,17,0.6,145.5,M,45.3,M,,0000*40
$GNRMC,112628.000,A,4726.5703,N,01911.1307,E,008.3,031.8,070615,,,A*71
$GNGGA,112628.100,4726.5705,N,01911.1309,E,1,17,0.6,145.5,M,45.3,M,,0000*49
$GNRMC,112628.100,A,4726.5705,N,01911.1309,E,008.3,031.9,070615,,,A*79
$GNGGA,112628.200,4726.5707,N,01911.1310,E,1,17,0.6,145.5,M,45.3,M,,0000*40
$GNGLL,4726.5707,N,01911.1310,E,112628.200,A,A*42
$GNGSA,A,3,02,12,24,15,17,14,06,25,,,,,1.1,0.6,0.9*22
$GNGSA,A,3,75,66,85,67,84,76,77,86,68,,,,1.1,0.6,0.9*20
$GPGSV,2,1,08,24,84,169,46,12,63,278,46,17,27,047,32,25,24,264,44*7D
$GPGSV,2,2,08,14,23,315,34,06,23,098,31,15,17,192,39,02,13,139,32*79
$GLGSV,3,1,10,76,63,336,35,85,52,057,45,86,51,156,46,75,46,093,23*6A
$GLGSV,3,2,10,67,20,308,31,77,14,303,26,66,12,256,37,84,11,025,22*63
$GLGSV,3,3,10,68,05,357,25,87,04,188,24*65
$GNRMC,112628.200,A,4726.5707,N,01911.1310,E,008.3,033.2,070615,,,A*79
$GNVTG,033.2,T,,M,008.3,N,015.4,K,A*1A
$GNZDA,112628.200,07,06,2015,00,00*43
$GNGGA,112628.300,4726.5709,N,01911.1312,E,1,17,0.6,145.5,M,45.3,M,,0000*4D
$GNRMC,112628.300,A,4726.5709,N,01911.1312,E,008.5,033.6,070615,,,A*76
$GNGGA,112628.400,4726.5711,N,01911.1314,E,1,17,0.6,145.5,M,45.3,M,,0000*45
$GNRMC,112628.400,A,4726.5711,N,01911.1314,E,008.3,033.0,070615,,,A*7E
$GNGGA,112628.500,4726.5713,N,01911.1316,E,1,17,0.6,145.5,M,45.3,M,,0000*44
$GNRMC,112628.500,A,4726.5713,N,01911.1316,E,008.2,032.3,070615,,,A*7C
$GNGGA,112628.600,4726.5715,N,01911.1318,E,1,17,0.6,145.5,M,45.3,M,,0000*4F
$GNRMC,112628.600,A,4726.5715,N,01911.1318,E,008.4,031.4,070615,,,A*75
$GNGGA,112628.700,4726.5717,N,01911.1319,E,1,17,0.6,145.5,M,45.3,M,,0000*4D
$GNRMC,112628.700,A,4726.5717,N,01911.1319,E,008.4,031.7,070615,,,A*74
$GNGGA,112628.800,4726.5718,N,01911.1321,E,1,17,0.6,145.5,M,45.3,M,,0000*46
$GNRMC,112628.800,A,4726.5718,N,01911.1321,E,008.6,031.5,070615,,,A*7F
$GNGGA,112628.900,4726.5720,N,01911.1323,E,1,17,0.6,145.5,M,45.3,M,,0000*4E
$GNRMC,112628.900,A,4726.5720,N,01911.1323,E,008.2,031.1,070615,,,A*77
$GNGGA,112629.000,4726.5722,N,01911.1325,E,1,17,0.6,145.6,M,45.3,M,,0000*41
$GNRMC,112629.000,A,4726.5722,N,01911.1325,E,008.4,032.8,070615,,,A*77
$GNGGA,112629.100,4726.5724,N,01911.1327,E,1,17,0.6,145.6,M,45.3,M,,0000*44
$GNRMC,112629.100,A,4726.5724,N,01911.1327,E,008.5,032.2,070615,,,A*79
$GNGGA,112629.200,4726.5726,N,01911.1328,E,1,17,0.6,145.6,M,45.3,M,,0000*4A
$GNGLL,4726.5726,N,01911.1328,E,112629.200,A,A*4B
$GNGSA,A,3,02,12,24,15,17,14,06,25,,,,,1.1,0.6,0.9*22
$GNGSA,A,3,75,66,85,67,84,76,77,86,68,,,,1.1,0.6,0.9*20
$GNRMC,112629.200,A,4726.5726,N,01911.1328,E,008.5,031.4,070615,,,A*72
$GNVTG,031.4,T,,M,008.5,N,015.8,K,A*14
$GNZDA,112629.200,07,06,2015,00,00*42
$GNGGA,112629.300,4726.5728,N,01911.1330,E,1,17,0.6,145.6,M,45.3,M,,0000*4C
$GNRMC,112629.300,A,4726.5728,N,01911.1330,E,008.4,032.4,070615,,,A*76
$GNGGA,112629.400,4726.5730,N,01911.1332,E,1,17,0.6,145.6,M,45.3,M,,0000*40
$GNRMC,112629.400,A,4726.5730,N,01911.1332,E,008.3,032.3,070615,,,A*7A
$GNGGA,112629.500,4726.5732,N,01911.1334,E,1,17,0.6,145.6,M,45.3,M,,0000*45
$GNRMC,112629.500,A,4726.5732,N,01911.1334,E,008.5,032.4,070615,,,A*7E
$GNGGA,112629.600,4726.5734,N,01911.1336,E,1,17,0.6,145.7,M,45.3,M,,0000*43
$GNRMC,112629.600,A,4726.5734,N,01911.1336,E,008.5,030.9,070615,,,A*76
$GNGGA,112629.700,4726.5736,N,01911.1337,E,1,17,0.6,145.7,M,45.3,M,,0000*41
$GNRMC,112629.700,A,4726.5736,N,01911.1337,E,008.5,030.8,070615,,,A*75
$GNGGA,112629.800,4726.5738,N,01911.1339,E,1,17,0.6,145.7,M,45.3,M,,0000*4E
$GNRMC,112629.800,A,4726.5738,N,01911.1339,E,008.6,032.5,070615,,,A*76
$GNGGA,112629.900,4726.5740,N,01911.1341,E,1,17,0.6,145.8,M,45.3,M,,0000*40
$GNRMC,112629.900,A,4726.5740,N,01911.1341,E,008.6,032.6,070615,,,A*74
$GNGGA,112630.000,4726.5742,N,01911.1343,E,1,17,0.6,145.8,M,45.3,M,,0000*41
$GNRMC,112630.000,A,4726.5742,N,01911.1343,E,008.7,032.3,070615,,,A*71
$GNGGA,112630.100,4726.5744,N,01911.1344,E,1,17,0.6,145.8,M,45.3,M,,0000*41
$GNRMC,112630.100,A,4726.5744,N,01911.1344,E,008.7,032.1,070615,,,A*73
$GNGGA,112630.200,4726.5746,N,01911.1346,E,1,17,0.6,145.8,M,45.3,M,,0000*42
$GNGLL,4726.5746,N,01911.1346,E,112630.200,A,A*4D
$GNGSA,A,3,02,12,24,15,17,14,06,25,,,,,1.1,0.6,0.9*22
$GNGSA,A,3,75,66,85,67,84,76,77,86,68,,,,1.1,0.6,0.9*20
$GNRMC,112630.200,A,4726.5746,N,01911.1346,E,008.5,032.4,070615,,,A*77
$GNVTG,032.4,T,,M,008.5,N,015.7,K,A*18
$GNZDA,112630.200,07,06,2015,00,00*4A
$GNGGA,112630.300,4726.5748,N,01911.1348,E,1,17,0.6,145.8,M,45.3,M,,0000*43
$GNRMC,112630.300,A,4726.5748,N,01911.1348,E,008.5,033.0,070615,,,A*73
$GNGGA,112630.400,4726.5750,N,01911.1350,E,1,17,0.6,145.8,M,45.3,M,,0000*44
$GNRMC,112630.400,A,4726.5750,N,01911.1350,E,008.5,031.0,070615,,,A*76
$GNGGA,112630.500,4726.5752,N,01911.1352,E,1,17,0.6,145.8,M,45.3,M,,0000*45
$GNRMC,112630.500,A,4726.5752,N,01911.1352,E,008.4,032.1,070615,,,A*74
$GNGGA,112630.600,4726.5754,N,01911.1353,E,1,17,0.6,145.8,M,45.3,M,,0000*41
$GNRMC,112630.600,A,4726.5754,N,01911.1353,E,008.4,031.0,070615,,,A*72
$GNGGA,112630.700,4726.5756,N,01911.1355,E,1,17,0.6,145.8,M,45.3,M,,0000*44
$GNRMC,112630.700,A,4726.5756,N,01911.1355,E,008.2,031.1,070615,,,A*70
$GNGGA,112630.800,4726.5758,N,01911.1357,E,1,17,0.6,145.8,M,45.3,M,,0000*47
$GNRMC,112630.800,A,4726.5758,N,01911.1357,E,008.0,030.3,070615,,,A*72
$GNGGA,112630.900,4726.5760,N,01911.1358,E,1,17,0.6,145.8,M,45.3,M,,0000*42
$GNRMC,112630.900,A,4726.5760,N,01911.1358,E,008.1,030.7,070615,,,A*72
$GNGGA,112631.000,4726.5762,N,01911.1360,E,1,17,0.6,145.8,M,45.3,M,,0000*43
$GNRMC,112631.000,A,4726.5762,N,01911.1360,E,008.1,030.1,070615,,,A*75
$GNGGA,112631.100,4726.5764,N,01911.1361,E,1,17,0.6,145.8,M,45.3,M,,0000*45
$GNRMC,112631.100,A,4726.5764,N,01911.1361,E,008.0,030.0,070615,,,A*73
$GNGGA,112631.200,4726.5766,N,01911.1363,E,1,17,0.6,145.8,M,45.3,M,,0000*46
$GNGLL,4726.5766,N,01911.1363,E,112631.200,A,A*49
$GNGSA,A,3,02,12,24,15,17,14,06,25,,,,,1.1,0.6,0.9*22
$GNGSA,A,3,75,66,85,67,84,76,77,86,68,,,,1.1,0.6,0.9*20
$GPGSV,2,1,08,24,84,169,48,12,63,278,45,17,27,047,33,25,24,264,44*71
$GPGSV,2,2,08,14,24,315,36,06,23,098,32,15,17,192,38,02,13,139,34*78
$GLGSV,3,1,10,76,63,336,35,85,52,057,45,86,51,156,45,75,46,093,26*6C
$GLGSV,3,2,10,67,20,308,31,77,14,303,26,66,12,256,38,84,11,025,20*6E
$GLGSV,3,3,10,68,05,357,21,87,04,188,21*64
$GNRMC,112631.200,A,4726.5766,N,01911.1363,E,007.9,029.9,070615,,,A*77
$GNVTG,029.9,T,,M,007.9,N,014.6,K,A*1C
$GNZDA,112631.200,07,06,2015,00,00*4B
$GNGGA,112631.300,4726.5768,N,01911.1365,E,1,17,0.6,145.8,M,45.3,M,,0000*4F
$GNRMC,112631.300,A,4726.5768,N,01911.1365,E,007.9,029.7,070615,,,A*70
$GNGGA,112631.400,4726.5770,N,01911.1366,E,1,17,0.6,145.8,M,45.3,M,,0000*42
$GNRMC,112631.400,A,4726.5770,N,01911.1366,E,007.8,030.0,070615,,,A*73
$GNGGA,112631.500,4726.5772,N,01911.1368,E,1,17,0.6,145.9,M,45.3,M,,0000*4E
$GNRMC,112631.500,A,4726.5772,N,01911.1368,E,007.9,030.5,070615,,,A*7A
$GNGGA,112631.600,4726.5773,N,01911.1369,E,1,17,0.6,145.9,M,45.3,M,,0000*4D
$GNRMC,112631.600,A,4726.5773,N,01911.1369,E,007.8,031.2,070615,,,A*7E
$GNGGA,112631.700,4726.5775,N,01911.1371,E,1,17,0.6,145.9,M,45.3,M,,0000*43
$GNRMC,112631.700,A,4726.5775,N,01911.1371,E,007.8,030.2,070615,,,A*71
$GNGGA,112631.800,4726.5777,N,01911.1372,E,1,17,0.6,145.9,M,45.3,M,,0000*4D
$GNRMC,112631.800,A,4726.5777,N,01911.1372,E,007.7,031.4,070615,,,A*77
$GNGGA,112631.900,4726.5779,N,01911.1374,E,1,17,0.6,146.0,M,45.3,M,,0000*4E
$GNRMC,112631.900,A,4726.5779,N,01911.1374,E,007.8,030.7,070615,,,A*73
$GNGGA,112632.000,4726.5781,N,01911.1375,E,1,17,0.6,146.0,M,45.3,M,,0000*42
$GNRMC,112632.000,A,4726.5781,N,01911.1375,E,007.6,032.3,070615,,,A*77
$GNGGA,112632.100,4726.5782,N,01911.1377,E,1,17,0.6,146.0,M,45.3,M,,0000*42
$GNRMC,112632.100,A,4726.5782,N,01911.1377,E,007.6,030.3,070615,,,A*75
$GNGGA,112632.200,4726.5784,N,01911.1378,E,1,17,0.6,146.0,M,45.3,M,,0000*48
$GNGLL,4726.5784,N,01911.1378,E,112632.200,A,A*4C
$GNGSA,A,3,02,12,24,15,17,14,06,25,,,,,1.1,0.6,0.9*22
$GNGSA,A,3,75,66,85,67,84,76,77,86,68,,,,1.1,0.6,0.9*20
$GNRMC,112632.200,A,4726.5784,N,01911.1378,E,007.6,032.0,070615,,,A*7E
$GNVTG,032.0,T,,M,007.6,N,014.1,K,A*17
$GNZDA,112632.200,07,06,2015,00,00*48
$GNGGA,112632.300,4726.5786,N,01911.1380,E,1,17,0.6,146.1,M,45.3,M,,0000*4D
$GNRMC,112632.300,A,4726.5786,N,01911.1380,E,007.6,030.9,070615,,,A*71
$GNGGA,112632.400,4726.5788,N,01911.1381,E,1,17,0.6,146.1,M,45.3,M,,0000*45
$GNRMC,112632.400,A,4726.5788,N,01911.1381,E,007.5,031.8,070615,,,A*7A
$GNGGA,112632.500,4726.5790,N,01911.1383,E,1,17,0.6,146.1,M,45.3,M,,0000*4F
$GNRMC,112632.500,A,4726.5790,N,01911.1383,E,007.4,031.8,070615,,,A*71
$GNGGA,112632.600,4726.5791,N,01911.1384,E,1,17,0.6,146.1,M,45.3,M,,0000*4A
$GNRMC,112632.600,A,4726.5791,N,01911.1384,E,007.5,032.0,070615,,,A*7E
$GNGGA,112632.700,4726.5793,N,01911.1386,E,1,17,0.6,146.2,M,45.3,M,,0000*48
$GNRMC,112632.700,A,4726.5793,N,01911.1386,E,007.2,031.4,070615,,,A*7F
$GNGGA,112632.800,4726.5795,N,01911.1387,E,1,17,0.6,146.2,M,45.3,M,,0000*40
$GNRMC,112632.800,A,4726.5795,N,01911.1387,E,007.2,031.8,070615,,,A*7B
$GNGGA,112632.900,4726.5796,N,01911.1389,E,1,17,0.6,146.2,M,45.3,M,,0000*4C
$GNRMC,112632.900,A,4726.5796,N,01911.1389,E,007.1,032.6,070615,,,A*79
$GNGGA,112633.000,4726.5798,N,01911.1390,E,1,17,0.6,146.2,M,45.3,M,,0000*42
$GNRMC,112633.000,A,4726.5798,N,01911.1390,E,006.8,032.5,070615,,,A*7C
$GNGGA,112633.100,4726.5799,N,01911.1392,E,1,17,0.6,146.2,M,45.3,M,,0000*40
$GNRMC,112633.100,A,4726.5799,N,01911.1392,E,006.8,031.2,070615,,,A*7A
$GNGGA,112633.200,4726.5801,N,01911.1393,E,1,17,0.6,146.3,M,45.3,M,,0000*4D
$GNGLL,4726.5801,N,01911.1393,E,112633.200,A,A*4A
$GNGSA,A,3,02,12,24,15,17,14,06,25,,,,,1.1,0.6,0.9*22
$GNGSA,A,3,75,66,85,67,84,76,77,86,68,,,,1.1,0.6,0.9*20
$GNRMC,112633.200,A,4726.5801,N,01911.1393,E,006.8,032.2,070615,,,A*75
$GNVTG,032.2,T,,M,006.8,N,012.5,K,A*18
$GNZDA,112633.200,07,06,2015,00,00*49
$GNGGA,112633.300,4726.5803,N,01911.1394,E,1,17,0.6,146.3,M,45.3,M,,0000*49
$GNRMC,112633.300,A,4726.5803,N,01911.1394,E,006.6,030.5,070615,,,A*7A
$GNGGA,112633.400,4726.5804,N,01911.1396,E,1,17,0.6,146.3,M,45.3,M,,0000*4B
$GNRMC,112633.400,A,4726.5804,N,01911.1396,E,006.6,031.8,070615,,,A*74
$GNGGA,112633.500,4726.5806,N,01911.1397,E,1,17,0.6,146.3,M,45.3,M,,0000*49
$GNRMC,112633.500,A,4726.5806,N,01911.1397,E,006.3,031.5,070615,,,A*7E
$GNGGA,112633.600,4726.5807,N,01911.1398,E,1,17,0.6,146.3,M,45.3,M,,0000*44
$GNRMC,112633.600,A,4726.5807,N,01911.1398,E,006.4,031.8,070615,,,A*79
$GNGGA,112633.700,4726.5809,N,01911.1400,E,1,17,0.6,146.4,M,45.3,M,,0000*4A
$GNRMC,112633.700,A,4726.5809,N,01911.1400,E,006.4,033.4,070615,,,A*7E
$GNGGA,112633.800,4726.5810,N,01911.1401,E,1,17,0.6,146.4,M,45.3,M,,0000*4C
$GNRMC,112633.800,A,4726.5810,N,01911.1401,E,006.2,032.0,070615,,,A*7B
$GNGGA,112633.900,4726.5812,N,01911.1402,E,1,17,0.6,146.4,M,45.3,M,,0000*4C
$GNRMC,112633.900,A,4726.5812,N,01911.1402,E,006.1,032.0,070615,,,A*78
$GNGGA,112634.000,4726.5813,N,01911.1404,E,1,17,0.6,146.4,M,45.3,M,,0000*45
$GNRMC,112634.000,A,4726.5813,N,01911.1404,E,006.1,032.7,070615,,,A*76
$GNGGA,112634.100,4726.5815,N,01911.1405,E,1,17,0.6,146.5,M,45.3,M,,0000*42
$GNRMC,112634.100,A,4726.5815,N,01911.1405,E,006.1,031.3,070615,,,A*77
$GNGGA,112634.200,4726.5816,N,01911.1406,E,1,17,0.6,146.5,M,45.3,M,,0000*41
$GNGLL,4726.5816,N,01911.1406,E,112634.200,A,A*40
$GNGSA,A,3,02,12,24,15,17,14,06,25,,,,,1.1,0.6,0.9*22
$GNGSA,A,3,75,66,85,67,84,76,77,86,68,,,,1.1,0.6,0.9*20
$GPGSV,2,1,08,24,84,169,49,12,63,278,45,17,26,047,28,25,24,264,43*7C
$GPGSV,2,2,08,14,24,315,32,06,23,098,33,15,17,192,37,02,13,139,35*73
$GLGSV,3,1,10,76,63,336,36,85,52,057,45,86,51,156,47,75,46,093,29*62
$GLGSV,3,2,10,67,20,308,28,77,14,303,24,66,12,256,39,84,11,025,26*63
$GLGSV,3,3,10,68,05,357,23,87,04,188,26*61
$GNRMC,112634.200,A,4726.5816,N,01911.1406,E,005.9,032.7,070615,,,A*78
$GNVTG,032.7,T,,M,005.9,N,010.9,K,A*11
$GNZDA,112634.200,07,06,2015,00,00*4E
$GNGGA,112634.300,4726.5817,N,01911.1408,E,1,17,0.6,146.5,M,45.3,M,,0000*4F
$GNRMC,112634.300,A,4726.5817,N,01911.1408,E,006.0,033.0,070615,,,A*7A
$GNGGA,112634.400,4726.5819,N,01911.1409,E,1,17,0.6,146.5,M,45.3,M,,0000*47
$GNRMC,112634.400,A,4726.5819,N,01911.1409,E,006.0,034.2,070615,,,A*77
$GNGGA,112634.500,4726.5820,N,01911.1410,E,1,17,0.6,146.5,M,45.3,M,,0000*44
$GNRMC,112634.500,A,4726.5820,N,01911.1410,E,005.7,032.2,070615,,,A*76
$GNGGA,112634.600,4726.5822,N,01911.1411,E,1,17,0.6,146.6,M,45.3,M,,0000*47
$GNRMC,112634.600,A,4726.5822,N,01911.1411,E,005.8,032.6,070615,,,A*7D
$GNGGA,112634.700,4726.5823,N,01911.1412,E,1,17,0.6,146.6,M,45.3,M,,0000*44
$GNRMC,112634.700,A,4726.5823,N,01911.1412,E,005.7,032.1,070615,,,A*76
$GNGGA,112634.800,4726.5824,N,01911.1414,E,1,17,0.6,146.6,M,45.3,M,,0000*4A
$GNRMC,112634.800,A,4726.5824,N,01911.1414,E,005.5,031.3,070615,,,A*7B
$GNGGA,112634.900,4726.5826,N,01911.1415,E,1,17,0.6,146.6,M,45.3,M,,0000*48
$GNRMC,112634.900,A,4726.5826,N,01911.1415,E,005.7,032.1,070615,,,A*7A
$GNGGA,112635.000,4726.5827,N,01911.1416,E,1,17,0.6,146.6,M,45.3,M,,0000*42
$GNRMC,112635.000,A,4726.5827,N,01911.1416,E,005.4,032.3,070615,,,A*71
$GNGGA,112635.100,4726.5828,N,01911.1417,E,1,17,0.6,146.6,M,45.3,M,,0000*4D
$GNRMC,112635.100,A,4726.5828,N,01911.1417,E,005.5,031.0,070615,,,A*7F
$GNGGA,112635.200,4726.5829,N,01911.1418,E,1,17,0.6,146.6,M,45.3,M,,0000*40
$GNGLL,4726.5829,N,01911.1418,E,112635.200,A,A*42
$GNGSA,A,3,02,12,24,15,17,14,06,25,,,,,1.1,0.6,0.9*22
$GNGSA,A,3,75,66,85,67,84,76,77,86,68,,,,1.1,0.6,0.9*20
$GNRMC,112635.200,A,4726.5829,N,01911.1418,E,005.5,029.3,070615,,,A*78
$GNVTG,029.3,T,,M,005.5,N,010.1,K,A*1B
$GNZDA,112635.200,07,06,2015,00,00*4F
$GNGGA,112635.300,4726.5831,N,01911.1419,E,1,17,0.6,146.6,M,45.3,M,,0000*49
$GNRMC,112635.300,A,4726.5831,N,01911.1419,E,005.5,029.5,070615,,,A*77
$GNGGA,112635.400,4726.5832,N,01911.1420,E,1,17,0.6,146.6,M,45.3,M,,0000*47
$GNRMC,112635.400,A,4726.5832,N,01911.1420,E,005.4,028.6,070615,,,A*7A
$GNGGA,112635.500,4726.5833,N,01911.1421,E,1,17,0.6,146.6,M,45.3,M,,0000*46
$GNRMC,112635.500,A,4726.5833,N,01911.1421,E,005.5,027.4,070615,,,A*77
$GNGGA,112635.600,4726.5835,N,01911.1422,E,1,17,0.6,146.6,M,45.3,M,,0000*40
$GNRMC,112635.600,A,4726.5835,N,01911.1422,E,005.5,026.5,070615,,,A*71
$GNGGA,112635.700,4726.5836,N,01911.1423,E,1,17,0.6,146.6,M,45.3,M,,0000*43
$GNRMC,112635.700,A,4726.5836,N,01911.1423,E,005.3,025.3,070615,,,A*71
$GNGGA,112635.800,4726.5838,N,01911.1424,E,1,17,0.6,146.6,M,45.3,M,,0000*45
$GNRMC,112635.800,A,4726.5838,N,01911.1424,E,005.4,022.8,070615,,,A*7C
$GNGGA,112635.900,4726.5839,N,01911.1425,E,1,17,0.6,146.6,M,45.3,M,,0000*44
$GNRMC,112635.900,A,4726.5839,N,01911.1425,E,005.7,019.4,070615,,,A*7A
$GNGGA,112636.000,4726.5840,N,01911.1426,E,1,17,0.6,146.6,M,45.3,M,,0000*43
$GNRMC,112636.000,A,4726.5840,N,01911.1426,E,005.8,019.1,070615,,,A*77
$GNGGA,112636.100,4726.5842,N,01911.1426,E,1,17,0.6,146.6,M,45.3,M,,0000*40
$GNRMC,112636.100,A,4726.5842,N,01911.1426,E,005.8,015.8,070615,,,A*71
$GNGGA,112636.200,4726.5844,N,01911.1427,E,1,17,0.6,146.6,M,45.3,M,,0000*44
$GNGLL,4726.5844,N,01911.1427,E,112636.200,A,A*46
$GNGSA,A,3,02,12,24,15,17,14,06,25,,,,,1.1,0.6,0.9*22
$GNGSA,A,3,75,66,85,67,84,76,77,86,68,,,,1.1,0.6,0.9*20
$GNRMC,112636.200,A,4726.5844,N,01911.1427,E,005.8,014.5,070615,,,A*79
$GNVTG,014.5,T,,M,005.8,N,010.8,K,A*17
$GNZDA,112636.200,07,06,2015,00,00*4C
$GNGGA,112636.300,4726.5845,N,01911.1428,E,1,17,0.6,146.6,M,45.3,M,,0000*4B
$GNRMC,112636.300,A,4726.5845,N,01911.1428,E,006.0,013.6,070615,,,A*79
$GNGGA,112636.400,4726.5847,N,01911.1428,E,1,17,0.6,146.6,M,45.3,M,,0000*4E
$GNRMC,112636.400,A,4726.5847,N,01911.1428,E,005.8,008.5,070615,,,A*7E
$GNGGA,112636.500,4726.5848,N,01911.1429,E,1,17,0.6,146.6,M,45.3,M,,0000*41
$GNRMC,112636.500,A,4726.5848,N,01911.1429,E,006.0,008.0,070615,,,A*7F
$GNGGA,112636.600,4726.5850,N,01911.1429,E,1,17,0.6,146.6,M,45.3,M,,0000*4B
$GNRMC,112636.600,A,4726.5850,N,01911.1429,E,006.1,004.2,070615,,,A*7A
$GNGGA,112636.700,4726.5852,N,01911.1429,E,1,17,0.6,146.6,M,45.3,M,,0000*48
$GNRMC,112636.700,A,4726.5852,N,01911.1429,E,006.3,001.8,070615,,,A*74
$GNGGA,112636.800,4726.5854,N,01911.1429,E,1,17,0.6,146.6,M,45.3,M,,0000*41
$GNRMC,112636.800,A,4726.5854,N,01911.1429,E,006.4,359.5,070615,,,A*79
$GNGGA,112636.900,4726.5855,N,01911.1429,E,1,17,0.6,146.6,M,45.3,M,,0000*41
$GNRMC,112636.900,A,4726.5855,N,01911.1429,E,006.4,357.0,070615,,,A*72
$GNGGA,112637.000,4726.5857,N,01911.1429,E,1,17,0.6,146.6,M,45.3,M,,0000*4B
$GNRMC,112637.000,A,4726.5857,N,01911.1429,E,006.5,354.0,070615,,,A*7A
$GNGGA,112637.100,4726.5859,N,01911.1429,E,1,17,0.6,146.6,M,45.3,M,,0000*44
$GNRMC,112637.100,A,4726.5859,N,01911.1429,E,006.6,350.6,070615,,,A*74
$GNGGA,112637.200,4726.5861,N,01911.1428,E,1,17,0.6,146.6,M,45.3,M,,0000*4D
$GNGLL,4726.5861,N,01911.1428,E,112637.200,A,A*4F
$GNGSA,A,3,02,12,24,15,17,14,06,25,,,,,1.1,0.6,0.9*22
$GNGSA,A,3,75,66,85,67,84,76,77,86,68,,,,1.1,0.6,0.9*20
$GPGSV,2,1,08,24,84,169,48,12,63,278,40,17,26,047,42,25,24,264,40*77
$GPGSV,2,2,08,14,24,315,40,06,23,098,42,15,17,192,40,02,13,139,39*7C
$GLGSV,3,1,10,76,63,336,36,85,52,057,41,86,51,156,45,75,46,093,45*6E
$GLGSV,3,2,10,67,20,308,38,77,14,303,32,66,12,256,33,84,11,025,19*63
$GLGSV,3,3,10,68,05,357,22,87,04,188,32*65
$GNRMC,112637.200,A,4726.5861,N,01911.1428,E,006.6,345.4,070615,,,A*7B
$GNVTG,345.4,T,,M,006.6,N,012.2,K,A*14
$GNZDA,112637.200,07,06,2015,00,00*4D
$GNGGA,112637.300,4726.5863,N,01911.1427,E,1,17,0.6,146.6,M,45.3,M,,0000*41
$GNRMC,112637.300,A,4726.5863,N,01911.1427,E,006.5,342.9,070615,,,A*7E
$GNGGA,112637.400,4726.5865,N,01911.1427,E,1,17,0.6,146.6,M,45.3,M,,0000*40
$GNRMC,112637.400,A,4726.5865,N,01911.1427,E,006.6,339.6,070615,,,A*7F
$GNGGA,112637.500,4726.5866,N,01911.1426,E,1,17,0.6,146.6,M,45.3,M,,0000*43
$GNRMC,112637.500,A,4726.5866,N,01911.1426,E,006.7,337.5,070615,,,A*70
$GNGGA,112637.600,4726.5868,N,01911.1425,E,1,17,0.6,146.6,M,45.3,M,,0000*4D
$GNRMC,112637.600,A,4726.5868,N,01911.1425,E,006.7,334.8,070615,,,A*70
$GNGGA,112637.700,4726.5870,N,01911.1424,E,1,17,0.6,146.6,M,45.3,M,,0000*44
$GNRMC,112637.700,A,4726.5870,N,01911.1424,E,006.9,332.1,070615,,,A*78
$GNGGA,112637.800,4726.5872,N,01911.1422,E,1,17,0.6,146.6,M,45.3,M,,0000*4F
$GNRMC,112637.800,A,4726.5872,N,01911.1422,E,006.8,329.0,070615,,,A*79
$GNGGA,112637.900,4726.5873,N,01911.1421,E,1,17,0.6,146.6,M,45.3,M,,0000*4C
$GNRMC,112637.900,A,4726.5873,N,01911.1421,E,007.0,324.4,070615,,,A*7A
$GNGGA,112638.000,4726.5875,N,01911.1419,E,1,17,0.6,146.5,M,45.3,M,,0000*44
$GNRMC,112638.000,A,4726.5875,N,01911.1419,E,007.0,323.0,070615,,,A*72
$GNGGA,112638.100,4726.5876,N,01911.1417,E,1,17,0.6,146.5,M,45.3,M,,0000*48
$GNRMC,112638.100,A,4726.5876,N,01911.1417,E,006.8,318.7,070615,,,A*78
$GNGGA,112638.200,4726.5878,N,01911.1416,E,1,17,0.6,146.5,M,45.3,M,,0000*44
$GNGLL,4726.5878,N,01911.1416,E,112638.200,A,A*45
$GNGSA,A,3,02,12,24,15,17,14,06,25,,,,,1.1,0.6,0.9*22
$GNGSA,A,3,75,66,85,67,84,76,77,86,68,,,,1.1,0.6,0.9*20
$GNRMC,112638.200,A,4726.5878,N,01911.1416,E,007.0,318.3,070615,,,A*79
$GNVTG,318.3,T,,M,007.0,N,013.0,K,A*1F
$GNZDA,112638.200,07,06,2015,00,00*42
$GNGGA,112638.300,4726.5879,N,01911.1414,E,1,17,0.6,146.5,M,45.3,M,,0000*46
$GNRMC,112638.300,A,4726.5879,N,01911.1414,E,006.9,316.3,070615,,,A*7D
$GNGGA,112638.400,4726.5881,N,01911.1412,E,1,17,0.6,146.5,M,45.3,M,,0000*40
$GNRMC,112638.400,A,4726.5881,N,01911.1412,E,007.1,313.0,070615,,,A*74
$GNGGA,112638.500,4726.5882,N,01911.1410,E,1,17,0.6,146.5,M,45.3,M,,0000*40
$GNRMC,112638.500,A,4726.5882,N,01911.1410,E,007.0,311.5,070615,,,A*72
$GNGGA,112638.600,4726.5883,N,01911.1408,E,1,17,0.6,146.5,M,45.3,M,,0000*4B
$GNRMC,112638.600,A,4726.5883,N,01911.1408,E,007.1,309.9,070615,,,A*7D
$GNGGA,112638.700,4726.5885,N,01911.1405,E,1,17,0.6,146.5,M,45.3,M,,0000*41
$GNRMC,112638.700,A,4726.5885,N,01911.1405,E,007.2,307.1,070615,,,A*72
$GNGGA,112638.800,4726.5886,N,01911.1403,E,1,17,0.6,146.5,M,45.3,M,,0000*4B
$GNRMC,112638.800,A,4726.5886,N,01911.1403,E,007.1,306.1,070615,,,A*7A
$GNGGA,112638.900,4726.5887,N,01911.1401,E,1,17,0.6,146.5,M,45.3,M,,0000*49
$GNRMC,112638.900,A,4726.5887,N,01911.1401,E,007.2,306.0,070615,,,A*7A
$GNGGA,112639.000,4726.5888,N,01911.1398,E,1,17,0.6,146.5,M,45.3,M,,0000*49
$GNRMC,112639.000,A,4726.5888,N,01911.1398,E,006.9,303.9,070615,,,A*7C
$GNGGA,112639.100,4726.5889,N,01911.1396,E,1,17,0.6,146.5,M,45.3,M,,0000*47
$GNRMC,112639.100,A,4726.5889,N,01911.1396,E,007.2,301.3,070615,,,A*70
$GNGGA,112639.200,4726.5890,N,01911.1394,E,1,17,0.6,146.4,M,45.3,M,,0000*4F
$GNGLL,4726.5890,N,01911.1394,E,112639.200,A,A*4F
$GNGSA,A,3,02,12,24,15,17,14,06,25,,,,,1.1,0.6,0.9*22
$GNGSA,A,3,75,66,85,67,84,76,77,86,68,,,,1.1,0.6,0.9*20
$GNRMC,112639.200,A,4726.5890,N,01911.1394,E,007.1,298.6,070615,,,A*7E
$GNVTG,298.6,T,,M,007.1,N,013.2,K,A*10
$GNZDA,112639.200,07,06,2015,00,00*43
$GNGGA,112639.300,4726.5891,N,01911.1391,E,1,17,0.6,146.4,M,45.3,M,,0000*4A
$GNRMC,112639.300,A,4726.5891,N,01911.1391,E,006.9,295.9,070615,,,A*70
$GNGGA,112639.400,4726.5892,N,01911.1389,E,1,17,0.6,146.4,M,45.3,M,,0000*47
$GNRMC,112639.400,A,4726.5892,N,01911.1389,E,006.7,295.1,070615,,,A*7B
$GNGGA,112639.500,4726.5893,N,01911.1386,E,1,17,0.6,146.4,M,45.3,M,,0000*48
$GNRMC,112639.500,A,4726.5893,N,01911.1386,E,007.2,294.7,070615,,,A*77
$GNGGA,112639.600,4726.5894,N,01911.1384,E,1,17,0.6,146.4,M,45.3,M,,0000*4E
$GNRMC,112639.600,A,4726.5894,N,01911.1384,E,007.1,292.0,070615,,,A*73
$GNGGA,112639.700,4726.5894,N,01911.1381,E,1,17,0.6,146.4,M,45.3,M,,0000*4A
$GNRMC,112639.700,A,4726.5894,N,01911.1381,E,007.4,290.8,070615,,,A*78
$GNGGA,112639.800,4726.5895,N,01911.1378,E,1,17,0.6,146.4,M,45.3,M,,0000*42
$GNRMC,112639.800,A,4726.5895,N,01911.1378,E,007.1,289.1,070615,,,A*74
$GNGGA,112639.900,4726.5896,N,01911.1375,E,1,17,0.6,146.4,M,45.3,M,,0000*4D
$GNRMC,112639.900,A,4726.5896,N,01911.1375,E,007.3,287.7,070615,,,A*71
$GNGGA,112640.000,4726.5896,N,01911.1372,E,1,16,0.6,146.5,M,45.3,M,,0000*4D
$GNRMC,112640.000,A,4726.5896,N,01911.1372,E,007.2,284.8,070615,,,A*7C
$GNGGA,112640.100,4726.5897,N,01911.1369,E,1,16,0.6,146.5,M,45.3,M,,0000*47
$GNRMC,112640.100,A,4726.5897,N,01911.1369,E,007.4,284.2,070615,,,A*7A
$GNGGA,112640.200,4726.5897,N,01911.1366,E,1,16,0.6,146.5,M,45.3,M,,0000*4B
$GNGLL,4726.5897,N,01911.1366,E,112640.200,A,A*4B
$GNGSA,A,3,02,12,24,15,17,14,06,25,,,,,1.1,0.6,0.9*22
$GNGSA,A,3,75,66,85,67,84,76,86,68,,,,,1.1,0.6,0.9*20
$GPGSV,2,1,08,24,84,169,45,12,63,278,41,17,26,047,38,25,24,264,43*75
$GPGSV,2,2,08,14,24,315,27,06,23,098,36,15,17,192,38,02,13,139,35*7D
$GLGSV,3,1,10,76,63,336,41,85,52,057,45,86,51,156,41,75,46,093,41*6A
$GLGSV,3,2,10,67,20,308,24,77,14,303,21,66,12,256,36,84,11,025,22*61
$GLGSV,3,3,10,68,05,357,27,87,04,188,34*66
$GNRMC,112640.200,A,4726.5897,N,01911.1366,E,007.5,280.0,070615,,,A*71
$GNVTG,280.0,T,,M,007.5,N,013.9,K,A*10
$GNZDA,112640.200,07,06,2015,00,00*4D
$GNGGA,112640.300,4726.5898,N,01911.1363,E,1,16,0.6,146.4,M,45.3,M,,0000*41
$GNRMC,112640.300,A,4726.5898,N,01911.1363,E,007.5,278.3,070615,,,A*7E
$GNGGA,112640.400,4726.5898,N,01911.1360,E,1,16,0.6,146.4,M,45.3,M,,0000*45
$GNRMC,112640.400,A,4726.5898,N,01911.1360,E,007.5,277.2,070615,,,A*74
$GNGGA,112640.500,4726.5898,N,01911.1357,E,1,16,0.6,146.4,M,45.3,M,,0000*40
$GNRMC,112640.500,A,4726.5898,N,01911.1357,E,007.7,276.4,070615,,,A*74
$GNGGA,112640.600,4726.5898,N,01911.1354,E,1,16,0.6,146.4,M,45.3,M,,0000*40
$GNRMC,112640.600,A,4726.5898,N,01911.1354,E,007.4,274.0,070615,,,A*71
$GNGGA,112640.700,4726.5898,N,01911.1351,E,1,16,0.6,146.4,M,45.3,M,,0000*44
$GNRMC,112640.700,A,4726.5898,N,01911.1351,E,007.2,273.4,070615,,,A*70
$GNGGA,112640.800,4726.5899,N,01911.1348,E,1,16,0.6,146.4,M,45.3,M,,0000*42
$GNRMC,112640.800,A,4726.5899,N,01911.1348,E,007.5,270.2,070615,,,A*74
$GNGGA,112640.900,4726.5898,N,01911.1345,E,1,16,0.6,146.4,M,45.3,M,,0000*4F
$GNRMC,112640.900,A,4726.5898,N,01911.1345,E,007.6,266.4,070615,,,A*7B
$GNGGA,112641.000,4726.5898,N,01911.1342,E,1,16,0.6,146.3,M,45.3,M,,0000*47
$GNRMC,112641.000,A,4726.5898,N,01911.1342,E,007.7,263.8,070615,,,A*7C
$GNGGA,112641.100,4726.5898,N,01911.1339,E,1,16,0.6,146.3,M,45.3,M,,0000*4A
$GNRMC,112641.100,A,4726.5898,N,01911.1339,E,007.6,262.9,070615,,,A*70
$GNGGA,112641.200,4726.5898,N,01911.1336,E,1,16,0.6,146.3,M,45.3,M,,0000*46
$GNGLL,4726.5898,N,01911.1336,E,112641.200,A,A*40
$GNGSA,A,3,02,12,24,15,17,14,06,25,,,,,1.1,0.6,0.9*22
$GNGSA,A,3,75,66,85,67,84,76,86,68,,,,,1.1,0.6,0.9*20
$GNRMC,112641.200,A,4726.5898,N,01911.1336,E,007.7,259.7,070615,,,A*7B
$GNVTG,259.7,T,,M,007.7,N,014.2,K,A*1D
$GNZDA,112641.200,07,06,2015,00,00*4C
$GNGGA,112641.300,4726.5897,N,01911.1332,E,1,16,0.6,146.3,M,45.3,M,,0000*4C
$GNRMC,112641.300,A,4726.5897,N,01911.1332,E,007.8,256.2,070615,,,A*74
$GNGGA,112641.400,4726.5897,N,01911.1329,E,1,17,0.6,146.3,M,45.3,M,,0000*40
$GNRMC,112641.400,A,4726.5897,N,01911.1329,E,007.6,253.6,070615,,,A*76
$GNGGA,112641.500,4726.5896,N,01911.1326,E,1,17,0.6,146.3,M,45.3,M,,0000*4F
$GNRMC,112641.500,A,4726.5896,N,01911.1326,E,007.5,251.8,070615,,,A*76
$GNGGA,112641.600,4726.5896,N,01911.1323,E,1,17,0.6,146.3,M,45.3,M,,0000*49
$GNRMC,112641.600,A,4726.5896,N,01911.1323,E,007.3,249.9,070615,,,A*7E
$GNGGA,112641.700,4726.5895,N,01911.1321,E,1,17,0.6,146.3,M,45.3,M,,0000*49
$GNRMC,112641.700,A,4726.5895,N,01911.1321,E,007.6,248.9,070615,,,A*7A
$GNGGA,112641.800,4726.5894,N,01911.1318,E,1,17,0.6,146.3,M,45.3,M,,0000*4D
$GNRMC,112641.800,A,4726.5894,N,01911.1318,E,007.1,245.8,070615,,,A*75
$GNGGA,112641.900,4726.5893,N,01911.1315,E,1,17,0.6,146.3,M,45.3,M,,0000*46
$GNRMC,112641.900,A,4726.5893,N,01911.1315,E,007.1,243.9,070615,,,A*79
$GNGGA,112642.000,4726.5892,N,01911.1313,E,1,17,0.6,146.3,M,45.3,M,,0000*4B
$GNRMC,112642.000,A,4726.5892,N,01911.1313,E,007.4,239.9,070615,,,A*7C
$GNGGA,112642.100,4726.5891,N,01911.1310,E,1,17,0.6,146.3,M,45.3,M,,0000*4A
$GNRMC,112642.100,A,4726.5891,N,01911.1310,E,007.3,236.3,070615,,,A*7F
$GNGGA,112642.200,4726.5890,N,01911.1307,E,1,17,0.6,146.3,M,45.3,M,,0000*4E
$GNGLL,4726.5890,N,01911.1307,E,112642.200,A,A*49
$GNGSA,A,3,02,12,24,15,17,14,06,25,,,,,1.1,0.6,0.9*22
$GNGSA,A,3,75,66,85,67,84,76,77,86,68,,,,1.1,0.6,0.9*20
$GNRMC,112642.200,A,4726.5890,N,01911.1307,E,007.4,236.7,070615,,,A*78
$GNVTG,236.7,T,,M,007.4,N,013.8,K,A*1A
$GNZDA,112642.200,07,06,2015,00,00*4F
$GNGGA,112642.300,4726.5889,N,01911.1305,E,1,17,0.6,146.3,M,45.3,M,,0000*45
$GNRMC,112642.300,A,4726.5889,N,01911.1305,E,007.4,232.7,070615,,,A*77
$GNGGA,112642.400,4726.5888,N,01911.1302,E,1,17,0.6,146.3,M,45.3,M,,0000*44
$GNRMC,112642.400,A,4726.5888,N,01911.1302,E,007.4,233.9,070615,,,A*79
$GNGGA,112642.500,4726.5886,N,01911.1300,E,1,17,0.6,146.3,M,45.3,M,,0000*49
$GNRMC,112642.500,A,4726.5886,N,01911.1300,E,007.4,229.8,070615,,,A*7E
$GNGGA,112642.600,4726.5885,N,01911.1298,E,1,17,0.6,146.3,M,45.3,M,,0000*49
$GNRMC,112642.600,A,4726.5885,N,01911.1298,E,007.5,225.5,070615,,,A*7E
$GNGGA,112642.700,4726.5883,N,01911.1296,E,1,17,0.6,146.3,M,45.3,M,,0000*40
$GNRMC,112642.700,A,4726.5883,N,01911.1296,E,007.4,224.1,070615,,,A*73
$GNGGA,112642.800,4726.5882,N,01911.1293,E,1,17,0.6,146.3,M,45.3,M,,0000*4B
$GNRMC,112642.800,A,4726.5882,N,01911.1293,E,007.2,223.0,070615,,,A*78
$GNGGA,112642.900,4726.5881,N,01911.1291,E,1,17,0.6,146.3,M,45.3,M,,0000*4B
$GNRMC,112642.900,A,4726.5881,N,01911.1291,E,007.4,220.8,070615,,,A*75
$GNGGA,112643.000,4726.5879,N,01911.1289,E,1,17,0.6,146.3,M,45.3,M,,0000*4D
$GNRMC,112643.000,A,4726.5879,N,01911.1289,E,007.4,218.2,070615,,,A*72
$GNGGA,112643.100,4726.5877,N,01911.1288,E,1,17,0.6,146.3,M,45.3,M,,0000*43
$GNRMC,112643.100,A,4726.5877,N,01911.1288,E,007.3,216.3,070615,,,A*74
$GNGGA,112643.200,4726.5876,N,01911.1286,E,1,17,0.6,146.2,M,45.3,M,,0000*4E
$GNGLL,4726.5876,N,01911.1286,E,112643.200,A,A*48
$GNGSA,A,3,02,12,24,15,17,14,06,25,,,,,1.1,0.6,0.9*22
$GNGSA,A,3,75,66,85,67,84,76,77,86,68,,,,1.1,0.6,0.9*20
$GPGSV,2,1,08,24,84,167,42,12,63,278,46,17,26,047,27,25,25,265,39*78
$GPGSV,2,2,08,14,24,315,40,06,23,098,43,15,17,192,42,02,13,139,33*75
$GLGSV,3,1,10,76,63,336,39,85,52,057,43,86,51,156,43,75,46,093,39*6E
$GLGSV,3,2,10,67,20,308,36,77,14,303,29,66,12,256,35,84,11,025,28*63
$GLGSV,3,3,10,68,05,357,21,87,04,188,26*63
$GNRMC,112643.200,A,4726.5876,N,01911.1286,E,007.2,215.7,070615,,,A*7E
$GNVTG,215.7,T,,M,007.2,N,013.2,K,A*17
$GNZDA,112643.200,07,06,2015,00,00*4E
$GNGGA,112643.300,4726.5874,N,01911.1284,E,1,17,0.6,146.2,M,45.3,M,,0000*4F
$GNRMC,112643.300,A,4726.5874,N,01911.1284,E,007.4,214.6,070615,,,A*79
$GNGGA,112643.400,4726.5872,N,01911.1282,E,1,17,0.6,146.2,M,45.3,M,,0000*48
$GNRMC,112643.400,A,4726.5872,N,01911.1282,E,007.2,214.3,070615,,,A*7D
$GNGGA,112643.500,4726.5871,N,01911.1281,E,1,17,0.6,146.2,M,45.3,M,,0000*49
$GNRMC,112643.500,A,4726.5871,N,01911.1281,E,007.4,213.8,070615,,,A*76
$GNGGA,112643.600,4726.5869,N,01911.1279,E,1,17,0.6,146.2,M,45.3,M,,0000*44
$GNRMC,112643.600,A,4726.5869,N,01911.1279,E,007.7,213.0,070615,,,A*70
$GNGGA,112643.700,4726.5867,N,01911.1277,E,1,17,0.6,146.2,M,45.3,M,,0000*45
$GNRMC,112643.700,A,4726.5867,N,01911.1277,E,007.5,213.7,070615,,,A*74
$GNGGA,112643.800,4726.5865,N,01911.1276,E,1,17,0.6,146.2,M,45.3,M,,0000*49
$GNRMC,112643.800,A,4726.5865,N,01911.1276,E,007.6,211.3,070615,,,A*7D
$GNGGA,112643.900,4726.5863,N,01911.1274,E,1,17,0.6,146.2,M,45.3,M,,0000*4C
$GNRMC,112643.900,A,4726.5863,N,01911.1274,E,007.5,211.3,070615,,,A*7B
$GNGGA,112644.000,4726.5862,N,01911.1273,E,1,17,0.6,146.1,M,45.3,M,,0000*47
$GNRMC,112644.000,A,4726.5862,N,01911.1273,E,007.6,211.0,070615,,,A*73
$GNGGA,112644.100,4726.5860,N,01911.1271,E,1,17,0.6,146.1,M,45.3,M,,0000*46
$GNRMC,112644.100,A,4726.5860,N,01911.1271,E,007.5,211.9,070615,,,A*78
$GNGGA,112644.200,4726.5858,N,01911.1270,E,1,17,0.6,146.1,M,45.3,M,,0000*4F
$GNGLL,4726.5858,N,01911.1270,E,112644.200,A,A*4A
$GNGSA,A,3,02,12,24,15,17,14,06,25,,,,,1.1,0.6,0.9*22
$GNGSA,A,3,75,66,85,67,84,76,77,86,68,,,,1.1,0.6,0.9*20
$GNRMC,112644.200,A,4726.5858,N,01911.1270,E,007.7,211.9,070615,,,A*73
$GNVTG,211.9,T,,M,007.7,N,014.2,K,A*1F
$GNZDA,112644.200,07,06,2015,00,00*49
$GNGGA,112644.300,4726.5856,N,01911.1268,E,1,17,0.6,146.1,M,45.3,M,,0000*49
$GNRMC,112644.300,A,4726.5856,N,01911.1268,E,007.8,211.4,070615,,,A*77
$GNGGA,112644.400,4726.5854,N,01911.1266,E,1,17,0.6,146.1,M,45.3,M,,0000*42
$GNRMC,112644.400,A,4726.5854,N,01911.1266,E,007.7,212.3,070615,,,A*77
$GNGGA,112644.500,4726.5852,N,01911.1265,E,1,17,0.6,146.1,M,45.3,M,,0000*46
$GNRMC,112644.500,A,4726.5852,N,01911.1265,E,007.8,212.3,070615,,,A*7C
$GNGGA,112644.600,4726.5851,N,01911.1263,E,1,17,0.6,146.1,M,45.3,M,,0000*40
$GNRMC,112644.600,A,4726.5851,N,01911.1263,E,007.8,212.7,070615,,,A*7E
$GNGGA,112644.700,4726.5849,N,01911.1261,E,1,17,0.6,146.0,M,45.3,M,,0000*4B
$GNRMC,112644.700,A,4726.5849,N,01911.1261,E,007.5,212.2,070615,,,A*7C
$GNGGA,112644.800,4726.5847,N,01911.1260,E,1,17,0.6,146.0,M,45.3,M,,0000*4B
$GNRMC,112644.800,A,4726.5847,N,01911.1260,E,007.8,214.0,070615,,,A*75
$GNGGA,112644.900,4726.5845,N,01911.1258,E,1,17,0.6,146.0,M,45.3,M,,0000*43
$GNRMC,112644.900,A,4726.5845,N,01911.1258,E,007.8,214.3,070615,,,A*7E
$GNGGA,112645.000,4726.5843,N,01911.1256,E,1,17,0.6,146.0,M,45.3,M,,0000*43
$GNRMC,112645.000,A,4726.5843,N,01911.1256,E,008.2,213.6,070615,,,A*79
$GNGGA,112645.100,4726.5841,N,01911.1254,E,1,17,0.6,146.1,M,45.3,M,,0000*43
$GNRMC,112645.100,A,4726.5841,N,01911.1254,E,007.9,214.3,070615,,,A*7E
$GNGGA,112645.200,4726.5839,N,01911.1252,E,1,17,0.6,146.1,M,45.3,M,,0000*49
$GNGLL,4726.5839,N,01911.1252,E,112645.200,A,A*4C
$GNGSA,A,3,02,12,24,15,17,14,06,25,,,,,1.1,0.6,0.9*22
$GNGSA,A,3,75,66,85,67,84,76,77,86,68,,,,1.1,0.6,0.9*20
$GNRMC,112645.200,A,4726.5839,N,01911.1252,E,007.9,214.5,070615,,,A*72
$GNVTG,214.5,T,,M,007.9,N,014.7,K,A*1D
$GNZDA,112645.200,07,06,2015,00,00*48
$GNGGA,112645.300,4726.5837,N,01911.1251,E,1,17,0.6,146.1,M,45.3,M,,0000*45
$GNRMC,112645.300,A,4726.5837,N,01911.1251,E,008.1,215.2,070615,,,A*7F
$GNGGA,112645.400,4726.5836,N,01911.1249,E,1,17,0.6,146.0,M,45.3,M,,0000*4B
$GNRMC,112645.400,A,4726.5836,N,01911.1249,E,008.1,214.9,070615,,,A*7A
$GNGGA,112645.500,4726.5834,N,01911.1247,E,1,17,0.6,146.0,M,45.3,M,,0000*46
$GNRMC,112645.500,A,4726.5834,N,01911.1247,E,008.0,213.9,070615,,,A*71
$GNGGA,112645.600,4726.5832,N,01911.1245,E,1,17,0.6,146.0,M,45.3,M,,0000*41
$GNRMC,112645.600,A,4726.5832,N,01911.1245,E,008.0,213.9,070615,,,A*76
$GNGGA,112645.700,4726.5830,N,01911.1243,E,1,17,0.6,146.0,M,45.3,M,,0000*44
$GNRMC,112645.700,A,4726.5830,N,01911.1243,E,008.1,213.8,070615,,,A*73
$GNGGA,112645.800,4726.5828,N,01911.1241,E,1,17,0.6,146.0,M,45.3,M,,0000*40
$GNRMC,112645.800,A,4726.5828,N,01911.1241,E,008.1,214.5,070615,,,A*7D
$GNGGA,112645.900,4726.5826,N,01911.1239,E,1,17,0.6,146.0,M,45.3,M,,0000*40
$GNRMC,112645.900,A,4726.5826,N,01911.1239,E,008.1,214.0,070615,,,A*78
$GNGGA,112646.000,4726.5824,N,01911.1237,E,1,17,0.6,146.0,M,45.3,M,,0000*46
$GNRMC,112646.000,A,4726.5824,N,01911.1237,E,008.1,213.6,070615,,,A*7F
$GNGGA,112646.100,4726.5822,N,01911.1236,E,1,17,0.6,146.0,M,45.3,M,,0000*40
$GNRMC,112646.100,A,4726.5822,N,01911.1236,E,008.2,213.3,070615,,,A*7F
$GNGGA,112646.200,4726.5820,N,01911.1234,E,1,17,0.6,146.0,M,45.3,M,,0000*43
$GNGLL,4726.5820,N,01911.1234,E,112646.200,A,A*47
$GNGSA,A,3,02,12,24,15,17,14,06,25,,,,,1.1,0.6,0.9*22
$GNGSA,A,3,75,66,85,67,84,76,77,86,68,,,,1.1,0.6,0.9*20
$GPGSV,2,1,08,24,84,167,43,12,63,278,41,17,26,047,31,25,25,265,41*76
$GPGSV,2,2,08,14,24,315,40,06,23,098,35,15,17,192,41,02,13,139,43*70
$GLGSV,3,1,10,76,63,336,39,85,52,057,42,86,51,156,43,75,46,093,42*63
$GLGSV,3,2,10,67,20,308,31,77,14,303,23,66,12,256,42,84,11,025,20*66
$GLGSV,3,3,10,68,05,357,31,87,04,188,36*63
$GNRMC,112646.200,A,4726.5820,N,01911.1234,E,008.1,213.1,070615,,,A*7D
$GNVTG,213.1,T,,M,008.1,N,015.1,K,A*1E
$GNZDA,112646.200,07,06,2015,00,00*4B
$GNGGA,112646.300,4726.5818,N,01911.1232,E,1,17,0.6,146.0,M,45.3,M,,0000*4F
$GNRMC,112646.300,A,4726.5818,N,01911.1232,E,008.2,213.5,070615,,,A*76
$GNGGA,112646.400,4726.5817,N,01911.1230,E,1,17,0.6,146.0,M,45.3,M,,0000*45
$GNRMC,112646.400,A,4726.5817,N,01911.1230,E,008.3,211.7,070615,,,A*7D
$GNGGA,112646.500,4726.5815,N,01911.1228,E,1,17,0.6,146.0,M,45.3,M,,0000*4F
$GNRMC,112646.500,A,4726.5815,N,01911.1228,E,008.0,213.4,070615,,,A*75
$GNGGA,112646.600,4726.5813,N,01911.1226,E,1,17,0.6,146.0,M,45.3,M,,0000*44
$GNRMC,112646.600,A,4726.5813,N,01911.1226,E,008.2,212.9,070615,,,A*70
$GNGGA,112646.700,4726.5811,N,01911.1225,E,1,17,0.6,146.0,M,45.3,M,,0000*44
$GNRMC,112646.700,A,4726.5811,N,01911.1225,E,008.2,211.7,070615,,,A*7D
$GNGGA,112646.800,4726.5809,N,01911.1223,E,1,17,0.6,146.0,M,45.3,M,,0000*44
$GNRMC,112646.800,A,4726.5809,N,01911.1223,E,008.2,212.6,070615,,,A*7F
$GNGGA,112646.900,4726.5807,N,01911.1221,E,1,17,0.6,146.0,M,45.3,M,,0000*49
$GNRMC,112646.900,A,4726.5807,N,01911.1221,E,008.1,212.0,070615,,,A*77
$GNGGA,112647.000,4726.5805,N,01911.1219,E,1,17,0.6,145.9,M,45.3,M,,0000*42
$GNRMC,112647.000,A,4726.5805,N,01911.1219,E,008.2,211.8,070615,,,A*7E
$GNGGA,112647.100,4726.5803,N,01911.1217,E,1,17,0.6,145.9,M,45.3,M,,0000*4B
$GNRMC,112647.100,A,4726.5803,N,01911.1217,E,008.1,212.3,070615,,,A*7C
$GNGGA,112647.200,4726.5801,N,01911.1216,E,1,17,0.6,145.9,M,45.3,M,,0000*4B
$GNGLL,4726.5801,N,01911.1216,E,112647.200,A,A*45
$GNGSA,A,3,02,12,24,15,17,14,06,25,,,,,1.1,0.6,0.9*22
$GNGSA,A,3,75,66,85,67,84,76,77,86,68,,,,1.1,0.6,0.9*20
$GNRMC,112647.200,A,4726.5801,N,01911.1216,E,008.1,211.4,070615,,,A*78
$GNVTG,211.4,T,,M,008.1,N,015.0,K,A*18
$GNZDA,112647.200,07,06,2015,00,00*4A
$GNGGA,112647.300,4726.5799,N,01911.1214,E,1,17,0.6,145.9,M,45.3,M,,0000*46
$GNRMC,112647.300,A,4726.5799,N,01911.1214,E,008.1,211.2,070615,,,A*73
$GNGGA,112647.400,4726.5797,N,01911.1212,E,1,17,0.6,145.9,M,45.3,M,,0000*49
$GNRMC,112647.400,A,4726.5797,N,01911.1212,E,008.2,211.6,070615,,,A*7B
$GNGGA,112647.500,4726.5795,N,01911.1211,E,1,17,0.6,145.9,M,45.3,M,,0000*49
$GNRMC,112647.500,A,4726.5795,N,01911.1211,E,008.0,211.2,070615,,,A*7D
$GNGGA,112647.600,4726.5793,N,01911.1209,E,1,17,0.6,145.9,M,45.3,M,,0000*45
$GNRMC,112647.600,A,4726.5793,N,01911.1209,E,008.0,210.1,070615,,,A*73
$GNGGA,112647.700,4726.5791,N,01911.1207,E,1,17,0.6,145.9,M,45.3,M,,0000*48
$GNRMC,112647.700,A,4726.5791,N,01911.1207,E,008.0,210.2,070615,,,A*7D
$GNGGA,112647.800,4726.5790,N,01911.1206,E,1,17,0.6,145.9,M,45.3,M,,0000*47
$GNRMC,112647.800,A,4726.5790,N,01911.1206,E,008.1,210.4,070615,,,A*75
$GNGGA,112647.900,4726.5788,N,01911.1204,E,1,17,0.6,145.9,M,45.3,M,,0000*4D
$GNRMC,112647.900,A,4726.5788,N,01911.1204,E,008.0,210.2,070615,,,A*78
$GNGGA,112648.000,4726.5786,N,01911.1202,E,1,16,0.6,145.9,M,45.3,M,,0000*42
$GNRMC,112648.000,A,4726.5786,N,01911.1202,E,008.1,210.1,070615,,,A*74
$GNGGA,112648.100,4726.5784,N,01911.1201,E,1,16,0.6,145.9,M,45.3,M,,0000*42
$GNRMC,112648.100,A,4726.5784,N,01911.1201,E,008.2,209.9,070615,,,A*77
$GNGGA,112648.200,4726.5782,N,01911.1199,E,1,16,0.6,145.9,M,45.3,M,,0000*45
$GNGLL,4726.5782,N,01911.1199,E,112648.200,A,A*4A
$GNGSA,A,3,02,12,24,15,17,14,06,25,,,,,1.1,0.6,0.9*22
$GNGSA,A,3,75,66,85,67,76,77,86,68,,,,,1.1,0.6,0.9*2C
$GNRMC,112648.200,A,4726.5782,N,01911.1199,E,008.1,209.7,070615,,,A*7D
$GNVTG,209.7,T,,M,008.1,N,014.9,K,A*1A
$GNZDA,112648.200,07,06,2015,00,00*45
$GNGGA,112648.300,4726.5780,N,01911.1197,E,1,16,0.6,145.9,M,45.3,M,,0000*48
$GNRMC,112648.300,A,4726.5780,N,01911.1197,E,008.2,210.5,070615,,,A*79
$GNGGA,112648.400,4726.5778,N,01911.1196,E,1,16,0.6,145.9,M,45.3,M,,0000*49
$GNRMC,112648.400,A,4726.5778,N,01911.1196,E,008.2,211.0,070615,,,A*7C
$GNGGA,112648.500,4726.5776,N,01911.1194,E,1,16,0.6,145.9,M,45.3,M,,0000*44
$GNRMC,112648.500,A,4726.5776,N,01911.1194,E,008.3,210.3,070615,,,A*72
$GNGGA,112648.600,4726.5774,N,01911.1192,E,1,16,0.6,145.9,M,45.3,M,,0000*43
$GNRMC,112648.600,A,4726.5774,N,01911.1192,E,008.2,211.8,070615,,,A*7E
$GNGGA,112648.700,4726.5772,N,01911.1190,E,1,16,0.6,145.8,M,45.3,M,,0000*47
$GNRMC,112648.700,A,4726.5772,N,01911.1190,E,008.3,211.4,070615,,,A*76
$GNGGA,112648.800,4726.5770,N,01911.1189,E,1,16,0.6,145.8,M,45.3,M,,0000*42
$GNRMC,112648.800,A,4726.5770,N,01911.1189,E,008.3,211.0,070615,,,A*77
$GNGGA,112648.900,4726.5768,N,01911.1187,E,1,16,0.6,145.8,M,45.3,M,,0000*44
$GNRMC,112648.900,A,4726.5768,N,01911.1187,E,008.5,210.8,070615,,,A*7E
$GNGGA,112649.000,4726.5766,N,01911.1185,E,1,16,0.6,145.9,M,45.3,M,,0000*41
$GNRMC,112649.000,A,4726.5766,N,01911.1185,E,008.4,211.9,070615,,,A*7B
$GNGGA,112649.100,4726.5764,N,01911.1183,E,1,16,0.6,145.8,M,45.3,M,,0000*45
$GNRMC,112649.100,A,4726.5764,N,01911.1183,E,008.3,211.8,070615,,,A*78
$GNGGA,112649.200,4726.5762,N,01911.1182,E,1,16,0.6,145.8,M,45.3,M,,0000*41
$GNGLL,4726.5762,N,01911.1182,E,112649.200,A,A*4F
$GNGSA,A,3,02,12,24,15,17,14,06,25,,,,,1.1,0.6,0.9*22
$GNGSA,A,3,75,66,85,67,76,77,86,68,,,,,1.1,0.6,0.9*2C
$GPGSV,2,1,08,24,84,167,43,12,63,278,40,17,26,047,33,25,25,265,44*70
$GPGSV,2,2,08,14,24,315,35,06,23,098,39,15,17,192,42,02,13,139,43*7D
$GLGSV,3,1,10,76,63,336,40,85,52,057,39,86,51,156,43,75,46,093,41*62
$GLGSV,3,2,10,67,20,308,27,77,14,303,19,66,12,256,45,84,11,025,16*6A
$GLGSV,3,3,10,68,05,357,31,87,04,188,31*64
$GNRMC,112649.200,A,4726.5762,N,01911.1182,E,008.3,212.2,070615,,,A*75
$GNVTG,212.2,T,,M,008.3,N,015.3,K,A*1C
$GNZDA,112649.200,07,06,2015,00,00*44
$GNGGA,112649.300,4726.5760,N,01911.1180,E,1,16,0.6,145.8,M,45.3,M,,0000*40
$GNRMC,112649.300,A,4726.5760,N,01911.1180,E,008.4,211.8,070615,,,A*7A
$GNGGA,112649.400,4726.5758,N,01911.1178,E,1,16,0.6,145.8,M,45.3,M,,0000*4B
$GNRMC,112649.400,A,4726.5758,N,01911.1178,E,008.4,212.2,070615,,,A*78
$GNGGA,112649.500,4726.5756,N,01911.1176,E,1,16,0.6,145.8,M,45.3,M,,0000*4A
$GNRMC,112649.500,A,4726.5756,N,01911.1176,E,008.2,212.4,070615,,,A*79
$GNGGA,112649.600,4726.5754,N,01911.1174,E,1,16,0.6,145.8,M,45.3,M,,0000*49
$GNRMC,112649.600,A,4726.5754,N,01911.1174,E,008.3,212.8,070615,,,A*77
$GNGGA,112649.700,4726.5752,N,01911.1173,E,1,16,0.6,145.8,M,45.3,M,,0000*49
$GNRMC,112649.700,A,4726.5752,N,01911.1173,E,008.2,212.5,070615,,,A*7B
$GNGGA,112649.800,4726.5750,N,01911.1171,E,1,16,0.6,145.8,M,45.3,M,,0000*46
$GNRMC,112649.800,A,4726.5750,N,01911.1171,E,008.2,212.2,070615,,,A*73
$GNGGA,112649.900,4726.5748,N,01911.1169,E,1,16,0.6,145.8,M,45.3,M,,0000*47
$GNRMC,112649.900,A,4726.5748,N,01911.1169,E,008.1,213.0,070615,,,A*72
$GNGGA,112650.000,4726.5746,N,01911.1167,E,1,16,0.6,145.8,M,45.3,M,,0000*46
$GNRMC,112650.000,A,4726.5746,N,01911.1167,E,008.0,212.2,070615,,,A*71
$GNGGA,112650.100,4726.5745,N,01911.1166,E,1,16,0.6,145.8,M,45.3,M,,0000*45
$GNRMC,112650.100,A,4726.5745,N,01911.1166,E,008.1,211.9,070615,,,A*7B
$GNGGA,112650.200,4726.5743,N,01911.1164,E,1,16,0.6,145.8,M,45.3,M,,0000*42
$GNGLL,4726.5743,N,01911.1164,E,112650.200,A,A*4C
$GNGSA,A,3,02,12,24,15,17,14,06,25,,,,,1.1,0.6,0.9*22
$GNGSA,A,3,75,66,85,67,76,77,86,68,,,,,1.1,0.6,0.9*2C
$GNRMC,112650.200,A,4726.5743,N,01911.1164,E,007.9,212.7,070615,,,A*76
$GNVTG,212.7,T,,M,007.9,N,014.6,K,A*18
$GNZDA,112650.200,07,06,2015,00,00*4C
$GNGGA,112650.300,4726.5741,N,01911.1162,E,1,16,0.6,145.8,M,45.3,M,,0000*47
$GNRMC,112650.300,A,4726.5741,N,01911.1162,E,008.0,211.7,070615,,,A*76
$GNGGA,112650.400,4726.5739,N,01911.1160,E,1,16,0.6,145.8,M,45.3,M,,0000*4D
$GNRMC,112650.400,A,4726.5739,N,01911.1160,E,007.9,212.2,070615,,,A*7C
$GNGGA,112650.500,4726.5737,N,01911.1159,E,1,16,0.6,145.8,M,45.3,M,,0000*48
$GNRMC,112650.500,A,4726.5737,N,01911.1159,E,007.9,211.1,070615,,,A*79
$GNGGA,112650.600,4726.5735,N,01911.1157,E,1,16,0.6,145.8,M,45.3,M,,0000*47
$GNRMC,112650.600,A,4726.5735,N,01911.1157,E,007.9,211.7,070615,,,A*70
$GNGGA,112650.700,4726.5733,N,01911.1155,E,1,16,0.6,145.8,M,45.3,M,,0000*42
$GNRMC,112650.700,A,4726.5733,N,01911.1155,E,007.8,212.1,070615,,,A*71
$GNGGA,112650.800,4726.5731,N,01911.1154,E,1,16,0.6,145.8,M,45.3,M,,0000*4E
$GNRMC,112650.800,A,4726.5731,N,01911.1154,E,007.6,211.8,070615,,,A*79
$GNGGA,112650.900,4726.5730,N,01911.1152,E,1,16,0.6,145.8,M,45.3,M,,0000*48
$GNRMC,112650.900,A,4726.5730,N,01911.1152,E,007.6,212.4,070615,,,A*70
$GNGGA,112651.000,4726.5728,N,01911.1150,E,1,15,0.7,145.8,M,45.3,M,,0000*49
$GNRMC,112651.000,A,4726.5728,N,01911.1150,E,007.6,212.1,070615,,,A*76
$GNGGA,112651.100,4726.5726,N,01911.1149,E,1,15,0.7,145.8,M,45.3,M,,0000*4E
$GNRMC,112651.100,A,4726.5726,N,01911.1149,E,007.6,211.9,070615,,,A*7A
$GNGGA,112651.200,4726.5724,N,01911.1147,E,1,15,0.7,145.8,M,45.3,M,,0000*41
$GNGLL,4726.5724,N,01911.1147,E,112651.200,A,A*4D
$GNGSA,A,3,02,12,24,15,17,14,06,25,,,,,1.1,0.7,0.9*23
$GNGSA,A,3,75,66,85,67,76,86,68,,,,,,1.1,0.7,0.9*2D
$GNRMC,112651.200,A,4726.5724,N,01911.1147,E,007.6,212.1,070615,,,A*7E
$GNVTG,212.1,T,,M,007.6,N,014.0,K,A*17
$GNZDA,112651.200,07,06,2015,00,00*4D
$GNGGA,112651.300,4726.5723,N,01911.1145,E,1,15,0.7,145.8,M,45.3,M,,0000*45
$GNRMC,112651.300,A,4726.5723,N,01911.1145,E,007.4,212.3,070615,,,A*7A
$GNGGA,112651.400,4726.5721,N,01911.1144,E,1,15,0.7,145.8,M,45.3,M,,0000*41
$GNRMC,112651.400,A,4726.5721,N,01911.1144,E,007.4,212.5,070615,,,A*78
$GNGGA,112651.500,4726.5719,N,01911.1142,E,1,15,0.7,145.8,M,45.3,M,,0000*4D
$GNRMC,112651.500,A,4726.5719,N,01911.1142,E,007.4,212.3,070615,,,A*72
$GNGGA,112651.600,4726.5717,N,01911.1141,E,1,15,0.7,145.8,M,45.3,M,,0000*43
$GNRMC,112651.600,A,4726.5717,N,01911.1141,E,007.3,213.4,070615,,,A*7D
$GNGGA,112651.700,4726.5716,N,01911.1139,E,1,15,0.7,145.8,M,45.3,M,,0000*4C
$GNRMC,112651.700,A,4726.5716,N,01911.1139,E,007.6,212.6,070615,,,A*74
$GNGGA,112651.800,4726.5714,N,01911.1137,E,1,15,0.7,145.8,M,45.3,M,,0000*4F
$GNRMC,112651.800,A,4726.5714,N,01911.1137,E,007.6,213.0,070615,,,A*70
$GNGGA,112651.900,4726.5712,N,01911.1136,E,1,15,0.7,145.8,M,45.3,M,,0000*49
$GNRMC,112651.900,A,4726.5712,N,01911.1136,E,007.7,213.0,070615,,,A*77
$GNGGA,112652.000,4726.5710,N,01911.1134,E,1,15,0.7,145.8,M,45.3,M,,0000*43
$GNRMC,112652.000,A,4726.5710,N,01911.1134,E,007.8,212.7,070615,,,A*74
$GNGGA,112652.100,4726.5708,N,01911.1132,E,1,15,0.7,145.8,M,45.3,M,,0000*4D
$GNRMC,112652.100,A,4726.5708,N,01911.1132,E,008.1,213.1,070615,,,A*7B
