$GNGGA,152644.500,4727.2296,N,01911.0065,E,2,18,0.6,130.7,M,45.3,M,,0000*4E
$GNRMC,152644.500,A,4727.2296,N,01911.0065,E,000.0,212.8,300515,,,D*79
$GNGGA,152644.600,4727.2296,N,01911.0065,E,2,18,0.6,130.7,M,45.3,M,,0000*4D
$GNRMC,152644.600,A,4727.2296,N,01911.0065,E,000.0,212.8,300515,,,D*7A
$GNGGA,152644.700,4727.2296,N,01911.0065,E,2,18,0.6,130.7,M,45.3,M,,0000*4C
$GNRMC,152644.700,A,4727.2296,N,01911.0065,E,000.0,212.8,300515,,,D*7B
$GNGGA,152644.800,4727.2296,N,01911.0065,E,2,18,0.6,130.7,M,45.3,M,,0000*43
$GNRMC,152644.800,A,4727.2296,N,01911.0065,E,000.0,212.8,300515,,,D*74
$GNGGA,152644.900,4727.2296,N,01911.0065,E,2,18,0.6,130.7,M,45.3,M,,0000*42
$GNGLL,4727.2296,N,01911.0065,E,152644.900,A,D*49
$GNGSA,A,3,25,29,31,20,02,10,12,21,26,,,,1.1,0.6,0.9*28
$GNGSA,A,3,87,88,86,77,78,81,71,79,70,,,,1.1,0.6,0.9*2B
$GNRMC,152644.900,A,4727.2296,N,01911.0065,E,000.0,212.8,300515,,,D*75
$GNVTG,212.8,T,,M,000.0,N,000.0,K,D*1F
$GNZDA,152644.900,30,05,2015,00,00*41
$GNGGA,152645.000,4727.2296,N,01911.0065,E,2,18,0.6,130.7,M,45.3,M,,0000*4A
$GNRMC,152645.000,A,4727.2296,N,01911.0065,E,000.0,212.8,300515,,,D*7D
$GNGGA,152645.100,4727.2296,N,01911.0065,E,2,18,0.6,130.7,M,45.3,M,,0000*4B
$GNRMC,152645.100,A,4727.2296,N,01911.0065,E,000.0,212.8,300515,,,D*7C
$GNGGA,152645.200,4727.2296,N,01911.0065,E,2,18,0.6,130.7,M,45.3,M,,0000*48
$GNRMC,152645.200,A,4727.2296,N,01911.0065,E,000.0,212.8,300515,,,D*7F
$GNGGA,152645.300,4727.2296,N,01911.0065,E,2,18,0.6,130.7,M,45.3,M,,0000*49
$GNRMC,152645.300,A,4727.2296,N,01911.0065,E,000.0,212.8,300515,,,D*7E
$GNGGA,152645.400,4727.2296,N,01911.0065,E,2,18,0.6,130.7,M,45.3,M,,0000*4E
$GNRMC,152645.400,A,4727.2296,N,01911.0065,E,000.0,212.8,300515,,,D*79
$GNGGA,152645.500,4727.2296,N,01911.0065,E,2,18,0.6,130.7,M,45.3,M,,0000*4F
$GNRMC,152645.500,A,4727.2296,N,01911.0065,E,000.0,212.8,300515,,,D*78
$GNGGA,152645.600,4727.2296,N,01911.0065,E,2,18,0.6,130.7,M,45.3,M,,0000*4C
$GNRMC,152645.600,A,4727.2296,N,01911.0065,E,000.0,212.8,300515,,,D*7B
$GNGGA,152645.700,4727.2296,N,01911.0065,E,2,18,0.6,130.7,M,45.3,M,,0000*4D
$GNRMC,152645.700,A,4727.2296,N,01911.0065,E,000.0,212.8,300515,,,D*7A
$GNGGA,152645.800,4727.2296,N,01911.0065,E,2,18,0.6,130.7,M,45.3,M,,0000*42
$GNRMC,152645.800,A,4727.2296,N,01911.0065,E,000.0,212.8,300515,,,D*75
$GNGGA,152645.900,4727.2296,N,01911.0065,E,2,18,0.6,130.7,M,45.3,M,,0000*43
$GNGLL,4727.2296,N,01911.0065,E,152645.900,A,D*48
$GNGSA,A,3,25,29,31,20,02,10,12,21,26,,,,1.1,0.6,0.9*28
$GNGSA,A,3,87,88,86,77,78,81,71,79,70,,,,1.1,0.6,0.9*2B
$GNRMC,152645.900,A,4727.2296,N,01911.0065,E,000.0,212.8,300515,,,D*74
$GNVTG,212.8,T,,M,000.0,N,000.0,K,D*1F
$GNZDA,152645.900,30,05,2015,00,00*40
$GNGGA,152646.000,4727.2296,N,01911.0065,E,2,18,0.6,130.7,M,45.3,M,,0000*49
$GNRMC,152646.000,A,4727.2296,N,01911.0065,E,000.0,212.8,300515,,,D*7E
$GNGGA,152646.100,4727.2296,N,01911.0065,E,2,18,0.6,130.7,M,45.3,M,,0000*48
$GNRMC,152646.100,A,4727.2296,N,01911.0065,E,000.0,212.8,300515,,,D*7F
$GNGGA,152646.200,4727.2296,N,01911.0065,E,2,18,0.6,130.7,M,45.3,M,,0000*4B
$GNRMC,152646.200,A,4727.2296,N,01911.0065,E,000.0,212.8,300515,,,D*7C
$GNGGA,152646.300,4727.2296,N,01911.0065,E,2,18,0.6,130.7,M,45.3,M,,0000*4A
$GNRMC,152646.300,A,4727.2296,N,01911.0065,E,000.0,212.8,300515,,,D*7D
$GNGGA,152646.400,4727.2296,N,01911.0065,E,2,18,0.6,130.7,M,45.3,M,,0000*4D
$GNRMC,152646.400,A,4727.2296,N,01911.0065,E,000.0,212.8,300515,,,D*7A
$GNGGA,152646.500,4727.2296,N,01911.0065,E,2,18,0.6,130.7,M,45.3,M,,0000*4C
$GNRMC,152646.500,A,4727.2296,N,01911.0065,E,000.0,212.8,300515,,,D*7B
$GNGGA,152646.600,4727.2296,N,01911.0065,E,2,18,0.6,130.7,M,45.3,M,,0000*4F
$GNRMC,152646.600,A,4727.2296,N,01911.0065,E,000.0,212.8,300515,,,D*78
$GNGGA,152646.700,4727.2296,N,01911.0065,E,2,18,0.6,130.7,M,45.3,M,,0000*4E
$GNRMC,152646.700,A,4727.2296,N,01911.0065,E,000.0,212.8,300515,,,D*79
$GNGGA,152646.800,4727.2296,N,01911.0065,E,2,18,0.6,130.7,M,45.3,M,,0000*41
$GNRMC,152646.800,A,4727.2296,N,01911.0065,E,000.0,212.8,300515,,,D*76
$GNGGA,152646.900,4727.2296,N,01911.0065,E,2,18,0.6,130.7,M,45.3,M,,0000*40
$GNGLL,4727.2296,N,01911.0065,E,152646.900,A,D*4B
$GNGSA,A,3,25,29,31,20,02,10,12,21,26,,,,1.1,0.6,0.9*28
$GNGSA,A,3,87,88,86,77,78,81,71,79,70,,,,1.1,0.6,0.9*2B
$GPGSV,4,1,13,29,83,337,45,25,66,116,45,31,47,285,48,08,35,303,46*76
$GPGSV,4,2,13,39,35,172,42,21,30,193,39,02,28,050,44,12,27,116,42*79
$GPGSV,4,3,13,20,17,113,26,26,17,301,44,05,17,091,,10,07,034,34*72
$GPGSV,4,4,13,23,01,343,*4F
$GLGSV,3,1,11,78,61,309,38,88,60,254,43,87,60,032,45,77,54,177,40*61
$GLGSV,3,2,11,81,19,237,27,79,15,330,30,71,12,048,31,86,07,049,27*65
$GLGSV,3,3,11,70,06,001,21,76,03,158,,72,02,095,*53
$GNRMC,152646.900,A,4727.2296,N,01911.0065,E,000.0,212.8,300515,,,D*77
$GNVTG,212.8,T,,M,000.0,N,000.0,K,D*1F
$GNZDA,152646.900,30,05,2015,00,00*43
$GNGGA,152647.000,4727.2296,N,01911.0065,E,2,18,0.6,130.7,M,45.3,M,,0000*48
$GNRMC,152647.000,A,4727.2296,N,01911.0065,E,000.0,212.8,300515,,,D*7F
$GNGGA,152647.100,4727.2296,N,01911.0065,E,2,18,0.6,130.7,M,45.3,M,,0000*49
$GNRMC,152647.100,A,4727.2296,N,01911.0065,E,000.0,212.8,300515,,,D*7E
$GNGGA,152647.200,4727.2296,N,01911.0065,E,2,18,0.6,130.7,M,45.3,M,,0000*4A
$GNRMC,152647.200,A,4727.2296,N,01911.0065,E,000.0,212.8,300515,,,D*7D
$GNGGA,152647.300,4727.2296,N,01911.0065,E,2,18,0.6,130.7,M,45.3,M,,0000*4B
$GNRMC,152647.300,A,4727.2296,N,01911.0065,E,000.0,212.8,300515,,,D*7C
$GNGGA,152647.400,4727.2296,N,01911.0065,E,2,18,0.6,130.7,M,45.3,M,,0000*4C
$GNRMC,152647.400,A,4727.2296,N,01911.0065,E,000.0,212.8,300515,,,D*7B
$GNGGA,152647.500,4727.2296,N,01911.0065,E,2,18,0.6,130.7,M,45.3,M,,0000*4D
$GNRMC,152647.500,A,4727.2296,N,01911.0065,E,000.0,212.8,300515,,,D*7A
$GNGGA,152647.600,4727.2296,N,01911.0065,E,2,18,0.6,130.7,M,45.3,M,,0000*4E
$GNRMC,152647.600,A,4727.2296,N,01911.0065,E,000.0,212.8,300515,,,D*79
$GNGGA,152647.700,4727.2296,N,01911.0065,E,2,18,0.6,130.7,M,45.3,M,,0000*4F
$GNRMC,152647.700,A,4727.2296,N,01911.0065,E,000.0,212.8,300515,,,D*78
$GNGGA,152647.800,4727.2296,N,01911.0065,E,2,18,0.6,130.7,M,45.3,M,,0000*40
$GNRMC,152647.800,A,4727.2296,N,01911.0065,E,000.0,212.8,300515,,,D*77
$GNGGA,152647.900,4727.2296,N,01911.0065,E,2,18,0.6,130.7,M,45.3,M,,0000*41
$GNGLL,4727.2296,N,01911.0065,E,152647.900,A,D*4A
$GNGSA,A,3,25,29,31,20,02,10,12,21,26,,,,1.1,0.6,0.9*28
$GNGSA,A,3,87,88,86,77,78,81,71,79,70,,,,1.1,0.6,0.9*2B
$GNRMC,152647.900,A,4727.2296,N,01911.0065,E,000.0,212.8,300515,,,D*76
$GNVTG,212.8,T,,M,000.0,N,000.0,K,D*1F
$GNZDA,152647.900,30,05,2015,00,00*42
$GNGGA,152648.000,4727.2296,N,01911.0065,E,2,18,0.6,130.7,M,45.3,M,,0000*47
$GNRMC,152648.000,A,4727.2296,N,01911.0065,E,000.0,212.8,300515,,,D*70
$GNGGA,152648.100,4727.2296,N,01911.0065,E,2,18,0.6,130.7,M,45.3,M,,0000*46
$GNRMC,152648.100,A,4727.2296,N,01911.0065,E,000.0,212.8,300515,,,D*71
$GNGGA,152648.200,4727.2296,N,01911.0065,E,2,18,0.6,130.7,M,45.3,M,,0000*45
$GNRMC,152648.200,A,4727.2296,N,01911.0065,E,000.0,212.8,300515,,,D*72
$GNGGA,152648.300,4727.2296,N,01911.0065,E,2,18,0.6,130.7,M,45.3,M,,0000*44
$GNRMC,152648.300,A,4727.2296,N,01911.0065,E,000.0,212.8,300515,,,D*73
$GNGGA,152648.400,4727.2296,N,01911.0065,E,2,18,0.6,130.7,M,45.3,M,,0000*43
$GNRMC,152648.400,A,4727.2296,N,01911.0065,E,000.0,212.8,300515,,,D*74
$GNGGA,152648.500,4727.2296,N,01911.0065,E,2,18,0.6,130.7,M,45.3,M,,0000*42
$GNRMC,152648.500,A,4727.2296,N,01911.0065,E,000.0,212.8,300515,,,D*75
$GNGGA,152648.600,4727.2296,N,01911.0065,E,2,18,0.6,130.7,M,45.3,M,,0000*41
$GNRMC,152648.600,A,4727.2296,N,01911.0065,E,000.0,212.8,300515,,,D*76
$GNGGA,152648.700,4727.2296,N,01911.0065,E,2,18,0.6,130.7,M,45.3,M,,0000*40
$GNRMC,152648.700,A,4727.2296,N,01911.0065,E,000.0,212.8,300515,,,D*77
$GNGGA,152648.800,4727.2296,N,01911.0065,E,2,19,0.6,130.7,M,45.3,M,,0000*4E
$GNRMC,152648.800,A,4727.2296,N,01911.0065,E,000.0,212.8,300515,,,D*78
$GNGGA,152648.900,4727.2296,N,01911.0065,E,2,19,0.6,130.7,M,45.3,M,,0000*4F
$GNGLL,4727.2296,N,01911.0065,E,152648.900,A,D*45
$GNGSA,A,3,25,29,31,20,02,05,10,12,21,26,,,1.1,0.6,0.9*2D
$GNGSA,A,3,87,88,86,77,78,81,71,79,70,,,,1.1,0.6,0.9*2B
$GNRMC,152648.900,A,4727.2296,N,01911.0065,E,000.0,212.8,300515,,,D*79
$GNVTG,212.8,T,,M,000.0,N,000.0,K,D*1F
$GNZDA,152648.900,30,05,2015,00,00*4D
$GNGGA,152649.000,4727.2296,N,01911.0065,E,2,19,0.6,130.7,M,45.3,M,,0000*47
$GNRMC,152649.000,A,4727.2296,N,01911.0065,E,000.0,212.8,300515,,,D*71
$GNGGA,152649.100,4727.2296,N,01911.0065,E,2,19,0.6,130.7,M,45.3,M,,0000*46
$GNRMC,152649.100,A,4727.2296,N,01911.0065,E,000.0,212.8,300515,,,D*70
$GNGGA,152649.200,4727.2296,N,01911.0065,E,2,19,0.6,130.7,M,45.3,M,,0000*45
$GNRMC,152649.200,A,4727.2296,N,01911.0065,E,000.0,212.8,300515,,,D*73
$GNGGA,152649.300,4727.2296,N,01911.0065,E,2,19,0.6,130.7,M,45.3,M,,0000*44
$GNRMC,152649.300,A,4727.2296,N,01911.0065,E,000.0,212.8,300515,,,D*72
$GNGGA,152649.400,4727.2296,N,01911.0065,E,2,19,0.6,130.7,M,45.3,M,,0000*43
$GNRMC,152649.400,A,4727.2296,N,01911.0065,E,000.0,212.8,300515,,,D*75
$GNGGA,152649.500,4727.2296,N,01911.0065,E,2,19,0.6,130.7,M,45.3,M,,0000*42
$GNRMC,152649.500,A,4727.2296,N,01911.0065,E,000.0,212.8,300515,,,D*74
$GNGGA,152649.600,4727.2296,N,01911.0065,E,2,19,0.6,130.7,M,45.3,M,,0000*41
$GNRMC,152649.600,A,4727.2296,N,01911.0065,E,000.0,212.8,300515,,,D*77
$GNGGA,152649.700,4727.2296,N,01911.0065,E,2,19,0.6,130.7,M,45.3,M,,0000*40
$GNRMC,152649.700,A,4727.2296,N,01911.0065,E,000.0,212.8,300515,,,D*76
$GNGGA,152649.800,4727.2296,N,01911.0065,E,2,19,0.6,130.7,M,45.3,M,,0000*4F
$GNRMC,152649.800,A,4727.2296,N,01911.0065,E,000.0,212.8,300515,,,D*79
$GNGGA,152649.900,4727.2296,N,01911.0065,E,2,19,0.6,130.7,M,45.3,M,,0000*4E
$GNGLL,4727.2296,N,01911.0065,E,152649.900,A,D*44
$GNGSA,A,3,25,29,31,20,02,05,10,12,21,26,,,1.1,0.6,0.9*2D
$GNGSA,A,3,87,88,86,77,78,81,71,79,70,,,,1.1,0.6,0.9*2B
$GPGSV,4,1,13,29,83,337,45,25,66,116,45,31,47,285,48,08,35,303,46*76
$GPGSV,4,2,13,39,35,172,42,21,30,193,40,02,28,050,44,12,27,116,43*76
$GPGSV,4,3,13,05,17,091,23,20,17,113,31,26,17,301,43,10,07,034,33*75
$GPGSV,4,4,13,23,01,343,*4F
$GLGSV,3,1,11,78,61,309,38,88,60,254,43,87,60,032,45,77,54,177,41*60
$GLGSV,3,2,11,81,19,237,26,79,15,330,28,71,12,048,27,86,07,049,29*64
$GLGSV,3,3,11,70,06,001,17,76,03,158,,72,02,095,*56
$GNRMC,152649.900,A,4727.2296,N,01911.0065,E,000.0,212.8,300515,,,D*78
$GNVTG,212.8,T,,M,000.0,N,000.0,K,D*1F
$GNZDA,152649.900,30,05,2015,00,00*4C
$GNGGA,152650.000,4727.2296,N,01911.0065,E,2,19,0.6,130.7,M,45.3,M,,0000*4F
$GNRMC,152650.000,A,4727.2296,N,01911.0065,E,000.0,212.8,300515,,,D*79
$GNGGA,152650.100,4727.2296,N,01911.0065,E,2,19,0.6,130.7,M,45.3,M,,0000*4E
$GNRMC,152650.100,A,4727.2296,N,01911.0065,E,000.0,212.8,300515,,,D*78
$GNGGA,152650.200,4727.2296,N,01911.0065,E,2,19,0.6,130.7,M,45.3,M,,0000*4D
$GNRMC,152650.200,A,4727.2296,N,01911.0065,E,000.0,212.8,300515,,,D*7B
$GNGGA,152650.300,4727.2296,N,01911.0065,E,2,19,0.6,130.7,M,45.3,M,,0000*4C
$GNRMC,152650.300,A,4727.2296,N,01911.0065,E,000.0,212.8,300515,,,D*7A
$GNGGA,152650.400,4727.2296,N,01911.0065,E,2,19,0.6,130.7,M,45.3,M,,0000*4B
$GNRMC,152650.400,A,4727.2296,N,01911.0065,E,000.0,212.8,300515,,,D*7D
$GNGGA,152650.500,4727.2296,N,01911.0065,E,2,19,0.6,130.7,M,45.3,M,,0000*4A
$GNRMC,152650.500,A,4727.2296,N,01911.0065,E,000.0,212.8,300515,,,D*7C
$GNGGA,152650.600,4727.2296,N,01911.0065,E,2,19,0.6,130.7,M,45.3,M,,0000*49
$GNRMC,152650.600,A,4727.2296,N,01911.0065,E,000.0,212.8,300515,,,D*7F
$GNGGA,152650.700,4727.2296,N,01911.0065,E,2,19,0.6,130.7,M,45.3,M,,0000*48
$GNRMC,152650.700,A,4727.2296,N,01911.0065,E,000.0,212.8,300515,,,D*7E
$GNGGA,152650.800,4727.2296,N,01911.0065,E,2,18,0.6,130.7,M,45.3,M,,0000*46
$GNRMC,152650.800,A,4727.2296,N,01911.0065,E,000.0,212.8,300515,,,D*71
$GNGGA,152650.900,4727.2296,N,01911.0065,E,2,18,0.6,130.7,M,45.3,M,,0000*47
$GNGLL,4727.2296,N,01911.0065,E,152650.900,A,D*4C
$GNGSA,A,3,25,29,31,20,02,10,12,21,26,,,,1.1,0.6,0.9*28
$GNGSA,A,3,87,88,86,77,78,81,71,79,70,,,,1.1,0.6,0.9*2B
$GNRMC,152650.900,A,4727.2296,N,01911.0065,E,000.0,212.8,300515,,,D*70
$GNVTG,212.8,T,,M,000.0,N,000.0,K,D*1F
$GNZDA,152650.900,30,05,2015,00,00*44
$GNGGA,152651.000,4727.2296,N,01911.0065,E,2,18,0.6,130.7,M,45.3,M,,0000*4F
$GNRMC,152651.000,A,4727.2296,N,01911.0065,E,000.0,212.8,300515,,,D*78
$GNGGA,152651.100,4727.2296,N,01911.0065,E,2,18,0.6,130.7,M,45.3,M,,0000*4E
$GNRMC,152651.100,A,4727.2296,N,01911.0065,E,000.0,212.8,300515,,,D*79
$GNGGA,152651.200,4727.2296,N,01911.0065,E,2,18,0.6,130.7,M,45.3,M,,0000*4D
$GNRMC,152651.200,A,4727.2296,N,01911.0065,E,000.0,212.8,300515,,,D*7A
$GNGGA,152651.300,4727.2296,N,01911.0065,E,2,18,0.6,130.7,M,45.3,M,,0000*4C
$GNRMC,152651.300,A,4727.2296,N,01911.0065,E,000.0,212.8,300515,,,D*7B
$GNGGA,152651.400,4727.2296,N,01911.0065,E,2,18,0.6,130.7,M,45.3,M,,0000*4B
$GNRMC,152651.400,A,4727.2296,N,01911.0065,E,000.0,212.8,300515,,,D*7C
$GNGGA,152651.500,4727.2296,N,01911.0065,E,2,19,0.6,130.7,M,45.3,M,,0000*4B
$GNRMC,152651.500,A,4727.2296,N,01911.0065,E,000.0,212.8,300515,,,D*7D
$GNGGA,152651.600,4727.2296,N,01911.0065,E,2,19,0.6,130.7,M,45.3,M,,0000*48
$GNRMC,152651.600,A,4727.2296,N,01911.0065,E,000.0,212.8,300515,,,D*7E
$GNGGA,152651.700,4727.2296,N,01911.0065,E,2,19,0.6,130.7,M,45.3,M,,0000*49
$GNRMC,152651.700,A,4727.2296,N,01911.0065,E,000.0,212.8,300515,,,D*7F
$GNGGA,152651.800,4727.2296,N,01911.0065,E,2,19,0.6,130.7,M,45.3,M,,0000*46
$GNRMC,152651.800,A,4727.2296,N,01911.0065,E,000.0,212.8,300515,,,D*70
$GNGGA,152651.900,4727.2296,N,01911.0065,E,2,19,0.6,130.7,M,45.3,M,,0000*47
$GNGLL,4727.2296,N,01911.0065,E,152651.900,A,D*4D
$GNGSA,A,3,25,29,31,20,02,05,10,12,21,26,,,1.1,0.6,0.9*2D
$GNGSA,A,3,87,88,86,77,78,81,71,79,70,,,,1.1,0.6,0.9*2B
$GNRMC,152651.900,A,4727.2296,N,01911.0065,E,000.0,212.8,300515,,,D*71
$GNVTG,212.8,T,,M,000.0,N,000.0,K,D*1F
$GNZDA,152651.900,30,05,2015,00,00*45
$GNGGA,152652.000,4727.2296,N,01911.0065,E,2,18,0.6,130.7,M,45.3,M,,0000*4C
$GNRMC,152652.000,A,4727.2296,N,01911.0065,E,000.0,212.8,300515,,,D*7B
$GNGGA,152652.100,4727.2296,N,01911.0065,E,2,18,0.6,130.7,M,45.3,M,,0000*4D
$GNRMC,152652.100,A,4727.2296,N,01911.0065,E,000.0,212.8,300515,,,D*7A
$GNGGA,152652.200,4727.2296,N,01911.0065,E,2,18,0.6,130.7,M,45.3,M,,0000*4E
$GNRMC,152652.200,A,4727.2296,N,01911.0065,E,000.0,212.8,300515,,,D*79
$GNGGA,152652.300,4727.2296,N,01911.0065,E,2,18,0.6,130.7,M,45.3,M,,0000*4F
$GNRMC,152652.300,A,4727.2296,N,01911.0065,E,000.0,212.8,300515,,,D*78
$GNGGA,152652.400,4727.2296,N,01911.0065,E,2,18,0.6,130.7,M,45.3,M,,0000*48
$GNRMC,152652.400,A,4727.2296,N,01911.0065,E,000.0,212.8,300515,,,D*7F
$GNGGA,152652.500,4727.2296,N,01911.0065,E,2,18,0.6,130.7,M,45.3,M,,0000*49
$GNRMC,152652.500,A,4727.2296,N,01911.0065,E,000.0,212.8,300515,,,D*7E
$GNGGA,152652.600,4727.2296,N,01911.0065,E,2,18,0.6,130.7,M,45.3,M,,0000*4A
$GNRMC,152652.600,A,4727.2296,N,01911.0065,E,000.0,212.8,300515,,,D*7D
$GNGGA,152652.700,4727.2296,N,01911.0065,E,2,18,0.6,130.7,M,45.3,M,,0000*4B
$GNRMC,152652.700,A,4727.2296,N,01911.0065,E,000.0,212.8,300515,,,D*7C
$GNGGA,152652.800,4727.2296,N,01911.0065,E,2,18,0.6,130.7,M,45.3,M,,0000*44
$GNRMC,152652.800,A,4727.2296,N,01911.0065,E,000.0,212.8,300515,,,D*73
$GNGGA,152652.900,4727.2296,N,01911.0065,E,2,18,0.6,130.7,M,45.3,M,,0000*45
$GNGLL,4727.2296,N,01911.0065,E,152652.900,A,D*4E
$GNGSA,A,3,25,29,31,20,02,05,10,12,21,26,,,1.1,0.6,0.9*2D
$GNGSA,A,3,87,88,86,77,78,81,71,79,,,,,1.1,0.6,0.9*2C
$GPGSV,4,1,13,29,83,337,45,25,66,116,44,31,47,285,47,08,35,303,46*78
$GPGSV,4,2,13,39,35,172,42,21,30,193,39,02,28,050,45,12,27,116,41*7B
$GPGSV,4,3,13,05,17,091,30,20,17,113,31,26,17,301,43,10,07,034,33*77
$GPGSV,4,4,13,23,01,343,*4F
$GLGSV,3,1,11,78,61,309,37,88,60,254,43,87,60,032,46,77,54,177,40*6D
$GLGSV,3,2,11,81,19,237,28,79,15,330,32,71,12,048,33,86,07,049,30*6C
$GLGSV,3,3,11,70,06,001,12,76,03,158,,72,02,095,*53
$GNRMC,152652.900,A,4727.2296,N,01911.0065,E,000.0,212.8,300515,,,D*72
$GNVTG,212.8,T,,M,000.0,N,000.0,K,D*1F
$GNZDA,152652.900,30,05,2015,00,00*46
$GNGGA,152653.000,4727.2296,N,01911.0065,E,2,18,0.6,130.7,M,45.3,M,,0000*4D
$GNRMC,152653.000,A,4727.2296,N,01911.0065,E,000.0,212.8,300515,,,D*7A
$GNGGA,152653.100,4727.2296,N,01911.0065,E,2,18,0.6,130.7,M,45.3,M,,0000*4C
$GNRMC,152653.100,A,4727.2296,N,01911.0065,E,000.0,212.8,300515,,,D*7B
$GNGGA,152653.200,4727.2296,N,01911.0065,E,2,18,0.6,130.7,M,45.3,M,,0000*4F
$GNRMC,152653.200,A,4727.2296,N,01911.0065,E,000.0,212.8,300515,,,D*78
$GNGGA,152653.300,4727.2296,N,01911.0065,E,2,18,0.6,130.7,M,45.3,M,,0000*4E
$GNRMC,152653.300,A,4727.2296,N,01911.0065,E,000.0,212.8,300515,,,D*79
$GNGGA,152653.400,4727.2296,N,01911.0065,E,2,18,0.6,130.7,M,45.3,M,,0000*49
$GNRMC,152653.400,A,4727.2296,N,01911.0065,E,000.0,212.8,300515,,,D*7E
$GNGGA,152653.500,4727.2296,N,01911.0065,E,2,18,0.6,130.7,M,45.3,M,,0000*48
$GNRMC,152653.500,A,4727.2296,N,01911.0065,E,000.0,212.8,300515,,,D*7F
$GNGGA,152653.600,4727.2296,N,01911.0065,E,2,18,0.6,130.7,M,45.3,M,,0000*4B
$GNRMC,152653.600,A,4727.2296,N,01911.0065,E,000.0,212.8,300515,,,D*7C
$GNGGA,152653.700,4727.2296,N,01911.0065,E,2,18,0.6,130.7,M,45.3,M,,0000*4A
$GNRMC,152653.700,A,4727.2296,N,01911.0065,E,000.0,212.8,300515,,,D*7D
$GNGGA,152653.800,4727.2296,N,01911.0065,E,2,18,0.6,130.7,M,45.3,M,,0000*45
$GNRMC,152653.800,A,4727.2296,N,01911.0065,E,000.0,212.8,300515,,,D*72
$GNGGA,152653.900,4727.2296,N,01911.0065,E,2,18,0.6,130.7,M,45.3,M,,0000*44
$GNGLL,4727.2296,N,01911.0065,E,152653.900,A,D*4F
$GNGSA,A,3,25,29,31,20,02,05,10,12,21,26,,,1.1,0.6,0.9*2D
$GNGSA,A,3,87,88,86,77,78,81,71,79,,,,,1.1,0.6,0.9*2C
$GNRMC,152653.900,A,4727.2296,N,01911.0065,E,000.0,212.8,300515,,,D*73
$GNVTG,212.8,T,,M,000.0,N,000.0,K,D*1F
$GNZDA,152653.900,30,05,2015,00,00*47
$GNGGA,152654.000,4727.2296,N,01911.0065,E,2,19,0.6,130.7,M,45.3,M,,0000*4B
$GNRMC,152654.000,A,4727.2296,N,01911.0065,E,000.0,212.8,300515,,,D*7D
$GNGGA,152654.100,4727.2296,N,01911.0065,E,2,19,0.6,130.7,M,45.3,M,,0000*4A
$GNRMC,152654.100,A,4727.2296,N,01911.0065,E,000.0,212.8,300515,,,D*7C
$GNGGA,152654.200,4727.2296,N,01911.0065,E,2,19,0.6,130.7,M,45.3,M,,0000*49
$GNRMC,152654.200,A,4727.2296,N,01911.0065,E,000.0,212.8,300515,,,D*7F
$GNGGA,152654.300,4727.2296,N,01911.0065,E,2,19,0.6,130.7,M,45.3,M,,0000*48
$GNRMC,152654.300,A,4727.2296,N,01911.0065,E,000.0,212.8,300515,,,D*7E
$GNGGA,152654.400,4727.2296,N,01911.0065,E,2,19,0.6,130.7,M,45.3,M,,0000*4F
$GNRMC,152654.400,A,4727.2296,N,01911.0065,E,000.0,212.8,300515,,,D*79
$GNGGA,152654.500,4727.2296,N,01911.0065,E,2,19,0.6,130.7,M,45.3,M,,0000*4E
$GNRMC,152654.500,A,4727.2296,N,01911.0065,E,000.0,212.8,300515,,,D*78
$GNGGA,152654.600,4727.2296,N,01911.0065,E,2,19,0.6,130.7,M,45.3,M,,0000*4D
$GNRMC,152654.600,A,4727.2296,N,01911.0065,E,000.0,212.8,300515,,,D*7B
$GNGGA,152654.700,4727.2296,N,01911.0065,E,2,19,0.6,130.7,M,45.3,M,,0000*4C
$GNRMC,152654.700,A,4727.2296,N,01911.0065,E,000.0,212.8,300515,,,D*7A
$GNGGA,152654.800,4727.2296,N,01911.0065,E,2,19,0.6,130.7,M,45.3,M,,0000*43
$GNRMC,152654.800,A,4727.2296,N,01911.0065,E,000.0,212.8,300515,,,D*75
$GNGGA,152654.900,4727.2296,N,01911.0065,E,2,19,0.6,130.7,M,45.3,M,,0000*42
$GNGLL,4727.2296,N,01911.0065,E,152654.900,A,D*48
$GNGSA,A,3,25,29,31,20,02,05,10,12,21,26,,,1.1,0.6,0.9*2D
$GNGSA,A,3,87,88,86,77,78,81,71,79,70,,,,1.1,0.6,0.9*2B
$GNRMC,152654.900,A,4727.2296,N,01911.0065,E,000.0,212.8,300515,,,D*74
$GNVTG,212.8,T,,M,000.0,N,000.0,K,D*1F
$GNZDA,152654.900,30,05,2015,00,00*40
$GNGGA,152655.000,4727.2296,N,01911.0065,E,2,19,0.6,130.7,M,45.3,M,,0000*4A
$GNRMC,152655.000,A,4727.2296,N,01911.0065,E,000.0,212.8,300515,,,D*7C
$GNGGA,152655.100,4727.2296,N,01911.0065,E,2,19,0.6,130.7,M,45.3,M,,0000*4B
$GNRMC,152655.100,A,4727.2296,N,01911.0065,E,000.0,212.8,300515,,,D*7D
$GNGGA,152655.200,4727.2296,N,01911.0065,E,2,19,0.6,130.7,M,45.3,M,,0000*48
$GNRMC,152655.200,A,4727.2296,N,01911.0065,E,000.0,212.8,300515,,,D*7E
$GNGGA,152655.300,4727.2296,N,01911.0065,E,2,19,0.6,130.7,M,45.3,M,,0000*49
$GNRMC,152655.300,A,4727.2296,N,01911.0065,E,000.0,212.8,300515,,,D*7F
$GNGGA,152655.400,4727.2296,N,01911.0065,E,2,19,0.6,130.7,M,45.3,M,,0000*4E
$GNRMC,152655.400,A,4727.2296,N,01911.0065,E,000.0,212.8,300515,,,D*78
$GNGGA,152655.500,4727.2296,N,01911.0065,E,2,19,0.6,130.7,M,45.3,M,,0000*4F
$GNRMC,152655.500,A,4727.2296,N,01911.0065,E,000.0,212.8,300515,,,D*79
$GNGGA,152655.600,4727.2296,N,01911.0065,E,2,19,0.6,130.7,M,45.3,M,,0000*4C
$GNRMC,152655.600,A,4727.2296,N,01911.0065,E,000.0,212.8,300515,,,D*7A
$GNGGA,152655.700,4727.2296,N,01911.0065,E,2,19,0.6,130.7,M,45.3,M,,0000*4D
$GNRMC,152655.700,A,4727.2296,N,01911.0065,E,000.0,212.8,300515,,,D*7B
$GNGGA,152655.800,4727.2296,N,01911.0065,E,2,19,0.6,130.7,M,45.3,M,,0000*42
$GNRMC,152655.800,A,4727.2296,N,01911.0065,E,000.0,212.8,300515,,,D*74
$GNGGA,152655.900,4727.2296,N,01911.0065,E,2,19,0.6,130.7,M,45.3,M,,0000*43
$GNGLL,4727.2296,N,01911.0065,E,152655.900,A,D*49
$GNGSA,A,3,25,29,31,20,02,05,10,12,21,26,,,1.1,0.6,0.9*2D
$GNGSA,A,3,87,88,86,77,78,81,71,79,70,,,,1.1,0.6,0.9*2B
$GPGSV,4,1,13,29,83,337,46,25,66,116,45,31,47,285,44,08,35,303,47*78
$GPGSV,4,2,13,39,35,172,43,21,30,193,41,02,28,050,44,12,27,117,42*76
$GPGSV,4,3,13,05,17,091,39,20,17,113,34,26,17,301,42,10,07,034,35*7C
$GPGSV,4,4,13,23,01,343,*4F
$GLGSV,3,1,11,78,61,309,37,88,60,254,43,87,60,032,47,77,54,177,41*6D
$GLGSV,3,2,11,81,19,237,25,79,15,330,31,71,12,048,39,86,07,049,30*68
$GLGSV,3,3,11,70,06,001,24,76,03,158,,72,02,095,*56
$GNRMC,152655.900,A,4727.2296,N,01911.0065,E,000.0,212.8,300515,,,D*75
$GNVTG,212.8,T,,M,000.0,N,000.0,K,D*1F
$GNZDA,152655.900,30,05,2015,00,00*41
$GNGGA,152656.000,4727.2296,N,01911.0065,E,2,18,0.7,130.7,M,45.3,M,,0000*49
$GNRMC,152656.000,A,4727.2296,N,01911.0065,E,000.0,212.8,300515,,,D*7F
$GNGGA,152656.100,4727.2296,N,01911.0065,E,2,18,0.7,130.7,M,45.3,M,,0000*48
$GNRMC,152656.100,A,4727.2296,N,01911.0065,E,000.0,212.8,300515,,,D*7E
$GNGGA,152656.200,4727.2289,N,01911.0053,E,2,18,0.7,129.0,M,45.3,M,,0000*4F
$GNRMC,152656.200,A,4727.2289,N,01911.0053,E,001.0,210.0,300515,,,D*7D
$GNGGA,152656.300,4727.2288,N,01911.0053,E,2,18,0.7,129.0,M,45.3,M,,0000*4F
$GNRMC,152656.300,A,4727.2288,N,01911.0053,E,001.3,209.5,300515,,,D*73
$GNGGA,152656.400,4727.2288,N,01911.0053,E,2,18,0.7,128.9,M,45.3,M,,0000*40
$GNRMC,152656.400,A,4727.2288,N,01911.0053,E,001.7,209.4,300515,,,D*71
$GNGGA,152656.500,4727.2288,N,01911.0053,E,2,18,0.7,128.9,M,45.3,M,,0000*41
$GNRMC,152656.500,A,4727.2288,N,01911.0053,E,001.7,207.7,300515,,,D*7D
$GNGGA,152656.600,4727.2287,N,01911.0052,E,2,18,0.7,128.9,M,45.3,M,,0000*4C
$GNRMC,152656.600,A,4727.2287,N,01911.0052,E,002.1,211.4,300515,,,D*71
$GNGGA,152656.700,4727.2287,N,01911.0052,E,2,18,0.7,128.9,M,45.3,M,,0000*4D
$GNRMC,152656.700,A,4727.2287,N,01911.0052,E,002.3,208.2,300515,,,D*7C
$GNGGA,152656.800,4727.2286,N,01911.0051,E,2,18,0.7,128.9,M,45.3,M,,0000*40
$GNRMC,152656.800,A,4727.2286,N,01911.0051,E,002.7,212.2,300515,,,D*7E
$GNGGA,152656.900,4727.2285,N,01911.0051,E,2,18,0.7,128.9,M,45.3,M,,0000*42
$GNGLL,4727.2285,N,01911.0051,E,152656.900,A,D*4F
$GNGSA,A,3,25,29,31,20,02,05,10,12,21,26,,,1.2,0.7,1.0*27
$GNGSA,A,3,87,88,86,77,78,71,79,70,,,,,1.2,0.7,1.0*28
$GNRMC,152656.900,A,4727.2285,N,01911.0051,E,003.0,206.2,300515,,,D*7F
$GNVTG,206.2,T,,M,003.0,N,005.6,K,D*10
$GNZDA,152656.900,30,05,2015,00,00*42
$GNGGA,152657.000,4727.2285,N,01911.0050,E,2,18,0.7,128.9,M,45.3,M,,0000*4B
$GNRMC,152657.000,A,4727.2285,N,01911.0050,E,003.4,209.2,300515,,,D*7D
$GNGGA,152657.100,4727.2284,N,01911.0050,E,2,18,0.7,128.9,M,45.3,M,,0000*4B
$GNRMC,152657.100,A,4727.2284,N,01911.0050,E,003.9,207.8,300515,,,D*74
$GNGGA,152657.200,4727.2283,N,01911.0049,E,2,18,0.7,128.9,M,45.3,M,,0000*47
$GNRMC,152657.200,A,4727.2283,N,01911.0049,E,004.2,210.5,300515,,,D*7F
$GNGGA,152657.300,4727.2282,N,01911.0048,E,2,19,0.6,128.9,M,45.3,M,,0000*46
$GNRMC,152657.300,A,4727.2282,N,01911.0048,E,004.6,206.3,300515,,,D*7B
$GNGGA,152657.400,4727.2281,N,01911.0047,E,2,19,0.6,128.9,M,45.3,M,,0000*4D
$GNRMC,152657.400,A,4727.2281,N,01911.0047,E,004.7,208.3,300515,,,D*7F
$GNGGA,152657.500,4727.2280,N,01911.0046,E,2,19,0.6,128.9,M,45.3,M,,0000*4C
$GNRMC,152657.500,A,4727.2280,N,01911.0046,E,005.1,210.4,300515,,,D*77
$GNGGA,152657.600,4727.2278,N,01911.0045,E,2,19,0.6,128.9,M,45.3,M,,0000*4B
$GNRMC,152657.600,A,4727.2278,N,01911.0045,E,005.1,209.7,300515,,,D*7B
$GNGGA,152657.700,4727.2277,N,01911.0044,E,2,19,0.6,129.0,M,45.3,M,,0000*4C
$GNRMC,152657.700,A,4727.2277,N,01911.0044,E,005.5,206.5,300515,,,D*7D
$GNGGA,152657.800,4727.2276,N,01911.0043,E,2,19,0.6,129.0,M,45.3,M,,0000*45
$GNRMC,152657.800,A,4727.2276,N,01911.0043,E,005.8,207.8,300515,,,D*75
$GNGGA,152657.900,4727.2274,N,01911.0042,E,2,19,0.6,128.9,M,45.3,M,,0000*4F
$GNGLL,4727.2274,N,01911.0042,E,152657.900,A,D*42
$GNGSA,A,3,25,29,31,20,02,05,10,12,21,26,,,1.1,0.6,0.9*2D
$GNGSA,A,3,87,88,86,77,78,81,71,79,70,,,,1.1,0.6,0.9*2B
$GNRMC,152657.900,A,4727.2274,N,01911.0042,E,006.0,207.6,300515,,,D*72
$GNVTG,207.6,T,,M,006.0,N,011.0,K,D*13
$GNZDA,152657.900,30,05,2015,00,00*43
$GNGGA,152658.000,4727.2273,N,01911.0041,E,2,19,0.6,128.9,M,45.3,M,,0000*4D
$GNRMC,152658.000,A,4727.2273,N,01911.0041,E,006.4,206.2,300515,,,D*71
$GNGGA,152658.100,4727.2271,N,01911.0040,E,2,19,0.6,128.9,M,45.3,M,,0000*4F
$GNRMC,152658.100,A,4727.2271,N,01911.0040,E,006.7,212.5,300515,,,D*72
$GNGGA,152658.200,4727.2270,N,01911.0039,E,2,19,0.6,128.9,M,45.3,M,,0000*43
$GNRMC,152658.200,A,4727.2270,N,01911.0039,E,006.6,212.3,300515,,,D*79
$GNGGA,152658.300,4727.2268,N,01911.0037,E,2,19,0.6,128.9,M,45.3,M,,0000*45
$GNRMC,152658.300,A,4727.2268,N,01911.0037,E,007.0,206.8,300515,,,D*76
$GNGGA,152658.400,4727.2266,N,01911.0036,E,2,19,0.6,128.9,M,45.3,M,,0000*4D
$GNRMC,152658.400,A,4727.2266,N,01911.0036,E,007.2,209.3,300515,,,D*78
$GNGGA,152658.500,4727.2265,N,01911.0035,E,2,19,0.6,128.9,M,45.3,M,,0000*4C
$GNRMC,152658.500,A,4727.2265,N,01911.0035,E,007.4,206.9,300515,,,D*7A
$GNGGA,152658.600,4727.2263,N,01911.0033,E,2,19,0.6,128.9,M,45.3,M,,0000*4F
$GNRMC,152658.600,A,4727.2263,N,01911.0033,E,007.1,207.6,300515,,,D*72
$GNGGA,152658.700,4727.2261,N,01911.0032,E,2,19,0.6,128.9,M,45.3,M,,0000*4D
$GNRMC,152658.700,A,4727.2261,N,01911.0032,E,007.1,204.4,300515,,,D*71
$GNGGA,152658.800,4727.2259,N,01911.0031,E,2,19,0.6,128.9,M,45.3,M,,0000*4A
$GNRMC,152658.800,A,4727.2259,N,01911.0031,E,007.3,204.4,300515,,,D*74
$GNGGA,152658.900,4727.2257,N,01911.0030,E,2,19,0.6,128.9,M,45.3,M,,0000*44
$GNGLL,4727.2257,N,01911.0030,E,152658.900,A,D*49
$GNGSA,A,3,25,29,31,20,02,05,10,12,21,26,,,1.1,0.6,0.9*2D
$GNGSA,A,3,87,88,86,77,78,81,71,79,70,,,,1.1,0.6,0.9*2B
$GPGSV,4,1,13,29,83,337,45,25,66,116,46,31,47,285,30,08,35,303,40*7C
$GPGSV,4,2,13,39,35,172,39,21,30,193,40,02,28,050,43,12,27,117,41*7E
$GPGSV,4,3,13,05,17,091,39,20,17,113,32,26,17,301,31,10,07,034,35*7E
$GPGSV,4,4,13,23,01,343,*4F
$GLGSV,3,1,11,78,61,309,38,88,60,254,25,87,60,032,50,77,54,177,41*64
$GLGSV,3,2,11,81,19,237,39,79,15,330,37,71,12,048,36,86,07,049,28*65
$GLGSV,3,3,11,70,06,001,25,76,03,158,00,72,02,095,*57
$GNRMC,152658.900,A,4727.2257,N,01911.0030,E,007.1,205.4,300515,,,D*79
$GNVTG,205.4,T,,M,007.1,N,013.2,K,D*13
$GNZDA,152658.900,30,05,2015,00,00*4C
$GNGGA,152659.000,4727.2256,N,01911.0028,E,2,19,0.6,128.9,M,45.3,M,,0000*44
$GNRMC,152659.000,A,4727.2256,N,01911.0028,E,007.2,208.1,300515,,,D*72
$GNGGA,152659.100,4727.2254,N,01911.0027,E,2,19,0.6,128.9,M,45.3,M,,0000*48
$GNRMC,152659.100,A,4727.2254,N,01911.0027,E,007.0,207.8,300515,,,D*7A
$GNGGA,152659.200,4727.2252,N,01911.0026,E,2,19,0.6,128.9,M,45.3,M,,0000*4C
$GNRMC,152659.200,A,4727.2252,N,01911.0026,E,007.4,205.9,300515,,,D*79
$GNGGA,152659.300,4727.2250,N,01911.0024,E,2,19,0.6,128.9,M,45.3,M,,0000*4D
$GNRMC,152659.300,A,4727.2250,N,01911.0024,E,007.6,206.7,300515,,,D*77
$GNGGA,152659.400,4727.2249,N,01911.0023,E,2,19,0.6,128.9,M,45.3,M,,0000*45
$GNRMC,152659.400,A,4727.2249,N,01911.0023,E,007.2,207.4,300515,,,D*79
$GNGGA,152659.500,4727.2247,N,01911.0022,E,2,19,0.6,128.9,M,45.3,M,,0000*4B
$GNRMC,152659.500,A,4727.2247,N,01911.0022,E,007.4,206.9,300515,,,D*7D
$GNGGA,152659.600,4727.2245,N,01911.0020,E,2,19,0.6,129.0,M,45.3,M,,0000*40
$GNRMC,152659.600,A,4727.2245,N,01911.0020,E,007.7,208.0,300515,,,D*7A
$GNGGA,152659.700,4727.2243,N,01911.0019,E,2,19,0.6,129.0,M,45.3,M,,0000*4D
$GNRMC,152659.700,A,4727.2243,N,01911.0019,E,007.4,207.1,300515,,,D*7A
$GNGGA,152659.800,4727.2241,N,01911.0018,E,2,19,0.6,129.0,M,45.3,M,,0000*41
$GNRMC,152659.800,A,4727.2241,N,01911.0018,E,007.6,209.5,300515,,,D*7E
$GNGGA,152659.900,4727.2239,N,01911.0016,E,2,19,0.6,129.0,M,45.3,M,,0000*41
$GNGLL,4727.2239,N,01911.0016,E,152659.900,A,D*44
$GNGSA,A,3,25,29,31,20,02,05,10,12,21,26,,,1.1,0.6,0.9*2D
$GNGSA,A,3,87,88,86,77,78,81,71,79,70,,,,1.1,0.6,0.9*2B
$GNRMC,152659.900,A,4727.2239,N,01911.0016,E,007.8,212.1,300515,,,D*7E
$GNVTG,212.1,T,,M,007.8,N,014.5,K,D*19
$GNZDA,152659.900,30,05,2015,00,00*4D
$GNGGA,152700.000,4727.2238,N,01911.0014,E,2,19,0.6,128.9,M,45.3,M,,0000*4E
$GNRMC,152700.000,A,4727.2238,N,01911.0014,E,008.4,209.7,300515,,,D*76
$GNGGA,152700.100,4727.2236,N,01911.0013,E,2,19,0.6,128.9,M,45.3,M,,0000*46
$GNRMC,152700.100,A,4727.2236,N,01911.0013,E,008.6,207.6,300515,,,D*73
$GNGGA,152700.200,4727.2233,N,01911.0011,E,2,19,0.6,128.9,M,45.3,M,,0000*42
$GNRMC,152700.200,A,4727.2233,N,01911.0011,E,008.6,206.9,300515,,,D*79
$GNGGA,152700.300,4727.2231,N,01911.0010,E,2,19,0.6,128.9,M,45.3,M,,0000*40
$GNRMC,152700.300,A,4727.2231,N,01911.0010,E,009.1,207.6,300515,,,D*73
$GNGGA,152700.400,4727.2229,N,01911.0008,E,2,19,0.6,128.9,M,45.3,M,,0000*47
$GNRMC,152700.400,A,4727.2229,N,01911.0008,E,009.3,207.2,300515,,,D*72
$GNGGA,152700.500,4727.2227,N,01911.0006,E,2,19,0.6,128.9,M,45.3,M,,0000*46
$GNRMC,152700.500,A,4727.2227,N,01911.0006,E,009.4,207.8,300515,,,D*7E
$GNGGA,152700.600,4727.2224,N,01911.0005,E,2,19,0.6,128.9,M,45.3,M,,0000*45
$GNRMC,152700.600,A,4727.2224,N,01911.0005,E,009.8,208.0,300515,,,D*76
$GNGGA,152700.700,4727.2222,N,01911.0003,E,2,19,0.6,128.9,M,45.3,M,,0000*44
$GNRMC,152700.700,A,4727.2222,N,01911.0003,E,010.0,207.5,300515,,,D*7D
$GNGGA,152700.800,4727.2220,N,01911.0001,E,2,19,0.6,129.0,M,45.3,M,,0000*43
$GNRMC,152700.800,A,4727.2220,N,01911.0001,E,010.4,206.2,300515,,,D*70
$GNGGA,152700.900,4727.2217,N,01910.9999,E,2,19,0.6,129.0,M,45.3,M,,0000*46
$GNGLL,4727.2217,N,01910.9999,E,152700.900,A,D*43
$GNGSA,A,3,25,29,31,20,02,05,10,12,21,26,,,1.1,0.6,0.9*2D
$GNGSA,A,3,87,88,86,77,78,81,71,79,70,,,,1.1,0.6,0.9*2B
$GNRMC,152700.900,A,4727.2217,N,01910.9999,E,010.4,207.4,300515,,,D*72
$GNVTG,207.4,T,,M,010.4,N,019.3,K,D*19
$GNZDA,152700.900,30,05,2015,00,00*40
$GNGGA,152701.000,4727.2214,N,01910.9997,E,2,19,0.6,129.0,M,45.3,M,,0000*43
$GNRMC,152701.000,A,4727.2214,N,01910.9997,E,010.8,206.3,300515,,,D*7D
$GNGGA,152701.100,4727.2212,N,01910.9995,E,2,19,0.6,129.0,M,45.3,M,,0000*46
$GNRMC,152701.100,A,4727.2212,N,01910.9995,E,011.1,207.6,300515,,,D*74
$GNGGA,152701.200,4727.2209,N,01910.9993,E,2,19,0.6,128.9,M,45.3,M,,0000*41
$GNRMC,152701.200,A,4727.2209,N,01910.9993,E,011.2,209.7,300515,,,D*77
$GNGGA,152701.300,4727.2206,N,01910.9991,E,2,19,0.6,128.9,M,45.3,M,,0000*4D
$GNRMC,152701.300,A,4727.2206,N,01910.9991,E,011.4,209.1,300515,,,D*7B
$GNGGA,152701.400,4727.2204,N,01910.9989,E,2,19,0.6,128.9,M,45.3,M,,0000*41
$GNRMC,152701.400,A,4727.2204,N,01910.9989,E,011.7,208.8,300515,,,D*7C
$GNGGA,152701.500,4727.2201,N,01910.9986,E,2,19,0.6,128.9,M,45.3,M,,0000*4A
$GNRMC,152701.500,A,4727.2201,N,01910.9986,E,011.7,208.5,300515,,,D*7A
$GNGGA,152701.600,4727.2198,N,01910.9984,E,2,19,0.6,128.9,M,45.3,M,,0000*48
$GNRMC,152701.600,A,4727.2198,N,01910.9984,E,012.0,207.6,300515,,,D*70
$GNGGA,152701.700,4727.2195,N,01910.9982,E,2,19,0.6,128.9,M,45.3,M,,0000*42
$GNRMC,152701.700,A,4727.2195,N,01910.9982,E,012.3,209.8,300515,,,D*79
$GNGGA,152701.800,4727.2192,N,01910.9980,E,2,19,0.6,128.9,M,45.3,M,,0000*48
$GNRMC,152701.800,A,4727.2192,N,01910.9980,E,013.0,209.6,300515,,,D*7F
$GNGGA,152701.900,4727.2189,N,01910.9977,E,2,19,0.6,128.9,M,45.3,M,,0000*4B
$GNGLL,4727.2189,N,01910.9977,E,152701.900,A,D*46
$GNGSA,A,3,25,29,31,20,02,05,10,12,21,26,,,1.1,0.6,0.9*2D
$GNGSA,A,3,87,88,86,77,78,81,71,79,70,,,,1.1,0.6,0.9*2B
$GPGSV,4,1,13,29,83,337,46,25,66,116,46,31,47,285,47,08,35,303,45*7A
$GPGSV,4,2,13,39,35,172,39,21,30,193,40,02,28,050,45,12,27,117,46*7F
$GPGSV,4,3,13,05,17,091,35,20,17,113,44,26,17,301,29,10,07,034,36*79
$GPGSV,4,4,13,23,01,343,*4F
$GLGSV,3,1,11,78,61,309,38,88,60,254,44,87,60,032,49,77,54,177,42*68
$GLGSV,3,2,11,81,19,237,42,79,15,330,27,71,12,048,33,86,07,049,27*62
$GLGSV,3,3,11,70,06,001,25,76,03,158,15,72,02,095,*53
$GNRMC,152701.900,A,4727.2189,N,01910.9977,E,012.8,206.7,300515,,,D*7B
$GNVTG,206.7,T,,M,012.8,N,023.6,K,D*19
$GNZDA,152701.900,30,05,2015,00,00*41
$GNGGA,152702.000,4727.2185,N,01910.9975,E,2,19,0.6,128.9,M,45.3,M,,0000*4F
$GNRMC,152702.000,A,4727.2185,N,01910.9975,E,013.0,208.7,300515,,,D*78
$GNGGA,152702.100,4727.2182,N,01910.9972,E,2,19,0.6,128.9,M,45.3,M,,0000*4E
$GNRMC,152702.100,A,4727.2182,N,01910.9972,E,013.2,208.0,300515,,,D*7C
$GNGGA,152702.200,4727.2179,N,01910.9970,E,2,19,0.6,128.9,M,45.3,M,,0000*4B
$GNRMC,152702.200,A,4727.2179,N,01910.9970,E,013.3,209.2,300515,,,D*7B
$GNGGA,152702.300,4727.2176,N,01910.9967,E,2,19,0.6,128.9,M,45.3,M,,0000*43
$GNRMC,152702.300,A,4727.2176,N,01910.9967,E,013.6,209.4,300515,,,D*70
$GNGGA,152702.400,4727.2172,N,01910.9964,E,2,19,0.6,128.9,M,45.3,M,,0000*43
$GNRMC,152702.400,A,4727.2172,N,01910.9964,E,013.6,208.7,300515,,,D*72
$GNGGA,152702.500,4727.2169,N,01910.9962,E,2,19,0.6,128.9,M,45.3,M,,0000*4E
$GNRMC,152702.500,A,4727.2169,N,01910.9962,E,013.5,210.6,300515,,,D*74
$GNGGA,152702.600,4727.2166,N,01910.9959,E,2,19,0.6,128.9,M,45.3,M,,0000*4A
$GNRMC,152702.600,A,4727.2166,N,01910.9959,E,013.3,208.7,300515,,,D*7E
$GNGGA,152702.700,4727.2163,N,01910.9956,E,2,19,0.6,128.8,M,45.3,M,,0000*40
$GNRMC,152702.700,A,4727.2163,N,01910.9956,E,013.7,208.5,300515,,,D*73
$GNGGA,152702.800,4727.2159,N,01910.9953,E,2,19,0.6,128.8,M,45.3,M,,0000*43
$GNRMC,152702.800,A,4727.2159,N,01910.9953,E,013.5,208.7,300515,,,D*70
$GNGGA,152702.900,4727.2156,N,01910.9951,E,2,19,0.6,128.8,M,45.3,M,,0000*4F
$GNGLL,4727.2156,N,01910.9951,E,152702.900,A,D*43
$GNGSA,A,3,25,29,31,20,02,05,10,12,21,26,,,1.1,0.6,0.9*2D
$GNGSA,A,3,87,88,86,77,78,81,71,79,70,,,,1.1,0.6,0.9*2B
$GNRMC,152702.900,A,4727.2156,N,01910.9951,E,013.4,208.1,300515,,,D*7B
$GNVTG,208.1,T,,M,013.4,N,024.8,K,D*15
$GNZDA,152702.900,30,05,2015,00,00*42
$GNGGA,152703.000,4727.2153,N,01910.9948,E,2,19,0.6,128.8,M,45.3,M,,0000*4A
$GNRMC,152703.000,A,4727.2153,N,01910.9948,E,013.2,209.4,300515,,,D*7C
$GNGGA,152703.100,4727.2150,N,01910.9946,E,2,19,0.6,128.8,M,45.3,M,,0000*46
$GNRMC,152703.100,A,4727.2150,N,01910.9946,E,013.4,212.4,300515,,,D*7C
$GNGGA,152703.200,4727.2146,N,01910.9943,E,2,19,0.6,128.8,M,45.3,M,,0000*47
$GNRMC,152703.200,A,4727.2146,N,01910.9943,E,013.0,208.7,300515,,,D*71
$GNGGA,152703.300,4727.2143,N,01910.9940,E,2,19,0.6,128.8,M,45.3,M,,0000*40
$GNRMC,152703.300,A,4727.2143,N,01910.9940,E,013.5,209.5,300515,,,D*70
$GNGGA,152703.400,4727.2140,N,01910.9938,E,2,19,0.6,128.8,M,45.3,M,,0000*4B
$GNRMC,152703.400,A,4727.2140,N,01910.9938,E,013.3,211.7,300515,,,D*76
$GNGGA,152703.500,4727.2137,N,01910.9935,E,2,19,0.6,128.8,M,45.3,M,,0000*47
$GNRMC,152703.500,A,4727.2137,N,01910.9935,E,013.8,209.5,300515,,,D*7A
$GNGGA,152703.600,4727.2133,N,01910.9932,E,2,19,0.6,128.8,M,45.3,M,,0000*47
$GNRMC,152703.600,A,4727.2133,N,01910.9932,E,013.4,213.6,300515,,,D*7E
$GNGGA,152703.700,4727.2130,N,01910.9929,E,2,19,0.6,128.8,M,45.3,M,,0000*4F
$GNRMC,152703.700,A,4727.2130,N,01910.9929,E,013.4,207.8,300515,,,D*7D
$GNGGA,152703.800,4727.2127,N,01910.9926,E,2,19,0.6,128.7,M,45.3,M,,0000*46
$GNRMC,152703.800,A,4727.2127,N,01910.9926,E,014.0,210.3,300515,,,D*75
$GNGGA,152703.900,4727.2124,N,01910.9923,E,2,19,0.6,128.7,M,45.3,M,,0000*41
$GNGLL,4727.2124,N,01910.9923,E,152703.900,A,D*42
$GNGSA,A,3,25,29,31,20,02,05,10,12,21,26,,,1.1,0.6,0.9*2D
$GNGSA,A,3,87,88,86,77,78,81,71,79,70,,,,1.1,0.6,0.9*2B
$GNRMC,152703.900,A,4727.2124,N,01910.9923,E,013.9,210.0,300515,,,D*7F
$GNVTG,210.0,T,,M,013.9,N,025.7,K,D*1E
$GNZDA,152703.900,30,05,2015,00,00*43
$GNGGA,152704.000,4727.2120,N,01910.9921,E,2,19,0.6,128.7,M,45.3,M,,0000*49
$GNRMC,152704.000,A,4727.2120,N,01910.9921,E,013.9,208.8,300515,,,D*76
$GNGGA,152704.100,4727.2117,N,01910.9918,E,2,19,0.6,128.7,M,45.3,M,,0000*46
$GNRMC,152704.100,A,4727.2117,N,01910.9918,E,014.0,209.1,300515,,,D*7F
$GNGGA,152704.200,4727.2113,N,01910.9915,E,2,19,0.6,128.7,M,45.3,M,,0000*4C
$GNRMC,152704.200,A,4727.2113,N,01910.9915,E,013.8,211.1,300515,,,D*73
$GNGGA,152704.300,4727.2110,N,01910.9912,E,2,19,0.6,128.7,M,45.3,M,,0000*49
$GNRMC,152704.300,A,4727.2110,N,01910.9912,E,014.2,207.6,300515,,,D*7B
$GNGGA,152704.400,4727.2107,N,01910.9910,E,2,19,0.6,128.6,M,45.3,M,,0000*4B
$GNRMC,152704.400,A,4727.2107,N,01910.9910,E,014.9,211.8,300515,,,D*7A
$GNGGA,152704.500,4727.2103,N,01910.9906,E,2,19,0.6,128.7,M,45.3,M,,0000*48
$GNRMC,152704.500,A,4727.2103,N,01910.9906,E,014.5,211.2,300515,,,D*7E
$GNGGA,152704.600,4727.2100,N,01910.9903,E,2,19,0.6,128.6,M,45.3,M,,0000*4C
$GNRMC,152704.600,A,4727.2100,N,01910.9903,E,015.0,212.5,300515,,,D*7B
$GNGGA,152704.700,4727.2096,N,01910.9900,E,2,19,0.6,128.6,M,45.3,M,,0000*40
$GNRMC,152704.700,A,4727.2096,N,01910.9900,E,014.7,211.0,300515,,,D*77
$GNGGA,152704.800,4727.2093,N,01910.9897,E,2,19,0.6,128.6,M,45.3,M,,0000*45
$GNRMC,152704.800,A,4727.2093,N,01910.9897,E,014.9,211.0,300515,,,D*7C
$GNGGA,152704.900,4727.2089,N,01910.9894,E,2,19,0.6,128.7,M,45.3,M,,0000*4D
$GNGLL,4727.2089,N,01910.9894,E,152704.900,A,D*4E
$GNGSA,A,3,25,29,31,20,02,05,10,12,21,26,,,1.1,0.6,0.9*2D
$GNGSA,A,3,87,88,86,77,78,81,71,79,70,,,,1.1,0.6,0.9*2B
$GPGSV,4,1,13,29,83,337,45,25,66,116,40,31,47,285,45,08,35,303,45*7D
$GPGSV,4,2,13,39,35,172,39,21,30,193,40,02,28,050,45,12,27,117,43*7A
$GPGSV,4,3,13,05,17,091,38,20,17,113,39,26,17,301,33,10,07,034,33*70
$GPGSV,4,4,13,23,01,343,*4F
$GLGSV,3,1,11,78,61,309,39,88,60,254,34,87,60,032,49,77,54,177,39*62
$GLGSV,3,2,11,81,19,237,35,79,15,330,30,71,12,048,44,86,07,049,26*65
$GLGSV,3,3,11,70,06,001,25,76,03,158,20,72,02,095,*55
$GNRMC,152704.900,A,4727.2089,N,01910.9894,E,015.1,210.8,300515,,,D*75
$GNVTG,210.8,T,,M,015.1,N,028.1,K,D*13
$GNZDA,152704.900,30,05,2015,00,00*44
$GNGGA,152705.000,4727.2085,N,01910.9891,E,2,18,0.7,128.7,M,45.3,M,,0000*4C
$GNRMC,152705.000,A,4727.2085,N,01910.9891,E,015.4,210.6,300515,,,D*7F
$GNGGA,152705.100,4727.2082,N,01910.9888,E,2,18,0.7,128.7,M,45.3,M,,0000*42
$GNRMC,152705.100,A,4727.2082,N,01910.9888,E,015.1,209.1,300515,,,D*7B
$GNGGA,152705.200,4727.2078,N,01910.9885,E,2,18,0.7,128.6,M,45.3,M,,0000*48
$GNRMC,152705.200,A,4727.2078,N,01910.9885,E,015.2,210.7,300515,,,D*7D
$GNGGA,152705.300,4727.2074,N,01910.9882,E,2,18,0.7,128.6,M,45.3,M,,0000*42
$GNRMC,152705.300,A,4727.2074,N,01910.9882,E,014.9,211.5,300515,,,D*7E
$GNGGA,152705.400,4727.2071,N,01910.9878,E,2,18,0.7,128.6,M,45.3,M,,0000*45
$GNRMC,152705.400,A,4727.2071,N,01910.9878,E,015.9,208.6,300515,,,D*73
$GNGGA,152705.500,4727.2067,N,01910.9875,E,2,18,0.7,128.6,M,45.3,M,,0000*4E
$GNRMC,152705.500,A,4727.2067,N,01910.9875,E,015.6,211.0,300515,,,D*79
$GNGGA,152705.600,4727.2063,N,01910.9872,E,2,18,0.7,128.7,M,45.3,M,,0000*4F
$GNRMC,152705.600,A,4727.2063,N,01910.9872,E,015.9,212.1,300515,,,D*74
$GNGGA,152705.700,4727.2060,N,01910.9869,E,2,18,0.7,128.7,M,45.3,M,,0000*47
$GNRMC,152705.700,A,4727.2060,N,01910.9869,E,016.2,209.4,300515,,,D*7B
$GNGGA,152705.800,4727.2056,N,01910.9865,E,2,18,0.7,128.7,M,45.3,M,,0000*41
$GNRMC,152705.800,A,4727.2056,N,01910.9865,E,015.4,211.0,300515,,,D*75
$GNGGA,152705.900,4727.2052,N,01910.9862,E,2,18,0.7,128.7,M,45.3,M,,0000*43
$GNGLL,4727.2052,N,01910.9862,E,152705.900,A,D*40
$GNGSA,A,3,25,29,31,20,02,05,10,12,21,26,,,1.1,0.7,0.9*2C
$GNGSA,A,3,87,88,86,77,78,81,71,70,,,,,1.1,0.7,0.9*24
$GNRMC,152705.900,A,4727.2052,N,01910.9862,E,016.0,210.1,300515,,,D*70
$GNVTG,210.1,T,,M,016.0,N,029.7,K,D*1F
$GNZDA,152705.900,30,05,2015,00,00*45
$GNGGA,152706.000,4727.2048,N,01910.9859,E,2,18,0.7,128.8,M,45.3,M,,0000*45
$GNRMC,152706.000,A,4727.2048,N,01910.9859,E,016.4,212.0,300515,,,D*7E
$GNGGA,152706.100,4727.2044,N,01910.9855,E,2,18,0.7,128.8,M,45.3,M,,0000*44
$GNRMC,152706.100,A,4727.2044,N,01910.9855,E,015.6,209.8,300515,,,D*7C
$GNGGA,152706.200,4727.2040,N,01910.9852,E,2,18,0.7,128.8,M,45.3,M,,0000*44
$GNRMC,152706.200,A,4727.2040,N,01910.9852,E,015.9,212.2,300515,,,D*73
$GNGGA,152706.300,4727.2037,N,01910.9849,E,2,18,0.7,128.9,M,45.3,M,,0000*4E
$GNRMC,152706.300,A,4727.2037,N,01910.9849,E,015.8,210.5,300515,,,D*7C
$GNGGA,152706.400,4727.2033,N,01910.9846,E,2,18,0.7,128.9,M,45.3,M,,0000*42
$GNRMC,152706.400,A,4727.2033,N,01910.9846,E,015.7,207.9,300515,,,D*75
$GNGGA,152706.500,4727.2029,N,01910.9843,E,2,18,0.7,128.9,M,45.3,M,,0000*4D
$GNRMC,152706.500,A,4727.2029,N,01910.9843,E,015.4,211.1,300515,,,D*76
$GNGGA,152706.600,4727.2026,N,01910.9839,E,2,18,0.7,128.9,M,45.3,M,,0000*4C
$GNRMC,152706.600,A,4727.2026,N,01910.9839,E,015.5,208.2,300515,,,D*7D
$GNGGA,152706.700,4727.2022,N,01910.9836,E,2,18,0.7,129.0,M,45.3,M,,0000*4E
$GNRMC,152706.700,A,4727.2022,N,01910.9836,E,015.6,208.2,300515,,,D*74
$GNGGA,152706.800,4727.2018,N,01910.9833,E,2,18,0.7,129.0,M,45.3,M,,0000*4D
$GNRMC,152706.800,A,4727.2018,N,01910.9833,E,016.0,211.1,300515,,,D*79
$GNGGA,152706.900,4727.2014,N,01910.9830,E,2,18,0.7,129.0,M,45.3,M,,0000*43
$GNGLL,4727.2014,N,01910.9830,E,152706.900,A,D*46
$GNGSA,A,3,25,29,31,20,02,05,10,12,21,26,,,1.1,0.7,0.9*2C
$GNGSA,A,3,87,88,86,77,78,81,71,70,,,,,1.1,0.7,0.9*24
$GNRMC,152706.900,A,4727.2014,N,01910.9830,E,015.5,210.7,300515,,,D*76
$GNVTG,210.7,T,,M,015.5,N,028.8,K,D*11
$GNZDA,152706.900,30,05,2015,00,00*46
$GNGGA,152707.000,4727.2010,N,01910.9827,E,2,19,0.6,129.0,M,45.3,M,,0000*49
$GNRMC,152707.000,A,4727.2010,N,01910.9827,E,015.6,210.3,300515,,,D*7B
$GNGGA,152707.100,4727.2007,N,01910.9824,E,2,19,0.6,129.0,M,45.3,M,,0000*4D
$GNRMC,152707.100,A,4727.2007,N,01910.9824,E,015.8,209.3,300515,,,D*79
$GNGGA,152707.200,4727.2003,N,01910.9820,E,2,19,0.6,129.0,M,45.3,M,,0000*4E
$GNRMC,152707.200,A,4727.2003,N,01910.9820,E,015.6,211.0,300515,,,D*7E
$GNGGA,152707.300,4727.1999,N,01910.9817,E,2,19,0.6,129.0,M,45.3,M,,0000*42
$GNRMC,152707.300,A,4727.1999,N,01910.9817,E,015.6,209.8,300515,,,D*73
$GNGGA,152707.400,4727.1995,N,01910.9814,E,2,19,0.6,129.0,M,45.3,M,,0000*4A
$GNRMC,152707.400,A,4727.1995,N,01910.9814,E,015.4,210.8,300515,,,D*71
$GNGGA,152707.500,4727.1992,N,01910.9811,E,2,19,0.6,129.0,M,45.3,M,,0000*49
$GNRMC,152707.500,A,4727.1992,N,01910.9811,E,015.5,208.7,300515,,,D*75
$GNGGA,152707.600,4727.1988,N,01910.9808,E,2,19,0.6,129.0,M,45.3,M,,0000*49
$GNRMC,152707.600,A,4727.1988,N,01910.9808,E,015.2,208.9,300515,,,D*7C
$GNGGA,152707.700,4727.1984,N,01910.9805,E,2,19,0.6,129.0,M,45.3,M,,0000*49
$GNRMC,152707.700,A,4727.1984,N,01910.9805,E,015.2,208.2,300515,,,D*77
$GNGGA,152707.800,4727.1980,N,01910.9802,E,2,19,0.6,129.0,M,45.3,M,,0000*45
$GNRMC,152707.800,A,4727.1980,N,01910.9802,E,015.2,207.9,300515,,,D*7F
$GNGGA,152707.900,4727.1977,N,01910.9799,E,2,19,0.6,128.9,M,45.3,M,,0000*49
$GNGLL,4727.1977,N,01910.9799,E,152707.900,A,D*44
$GNGSA,A,3,25,29,31,20,02,05,10,12,21,26,,,1.1,0.6,0.9*2D
$GNGSA,A,3,87,88,86,77,78,81,71,79,70,,,,1.1,0.6,0.9*2B
$GPGSV,4,1,13,29,83,337,41,25,66,116,45,31,47,285,47,08,35,303,40*7B
$GPGSV,4,2,13,39,35,172,40,21,30,193,39,02,28,050,44,12,27,117,42*7A
$GPGSV,4,3,13,05,17,091,32,20,17,113,30,26,17,301,33,10,07,034,31*71
$GPGSV,4,4,13,23,01,342,*4E
$GLGSV,3,1,11,78,61,309,34,88,60,254,38,87,60,032,45,77,54,177,40*61
$GLGSV,3,2,11,81,19,237,24,79,15,330,20,71,12,048,41,86,07,049,30*66
$GLGSV,3,3,11,70,06,001,26,76,03,158,17,72,02,095,*52
$GNRMC,152707.900,A,4727.1977,N,01910.9799,E,015.1,208.7,300515,,,D*79
$GNVTG,208.7,T,,M,015.1,N,028.0,K,D*14
$GNZDA,152707.900,30,05,2015,00,00*47
$GNGGA,152708.000,4727.1973,N,01910.9796,E,2,18,0.7,128.9,M,45.3,M,,0000*44
$GNRMC,152708.000,A,4727.1973,N,01910.9796,E,015.4,208.0,300515,,,D*76
$GNGGA,152708.100,4727.1969,N,01910.9793,E,2,18,0.7,129.0,M,45.3,M,,0000*43
$GNRMC,152708.100,A,4727.1969,N,01910.9793,E,015.0,209.5,300515,,,D*79
$GNGGA,152708.200,4727.1966,N,01910.9790,E,2,18,0.7,129.0,M,45.3,M,,0000*4C
$GNRMC,152708.200,A,4727.1966,N,01910.9790,E,014.8,208.6,300515,,,D*7D
$GNGGA,152708.300,4727.1962,N,01910.9787,E,2,18,0.7,129.0,M,45.3,M,,0000*4F
$GNRMC,152708.300,A,4727.1962,N,01910.9787,E,015.3,208.9,300515,,,D*7B
$GNGGA,152708.400,4727.1958,N,01910.9784,E,2,18,0.7,129.1,M,45.3,M,,0000*43
$GNRMC,152708.400,A,4727.1958,N,01910.9784,E,015.4,207.4,300515,,,D*73
$GNGGA,152708.500,4727.1954,N,01910.9781,E,2,18,0.7,129.1,M,45.3,M,,0000*4B
$GNRMC,152708.500,A,4727.1954,N,01910.9781,E,015.3,208.3,300515,,,D*74
$GNGGA,152708.600,4727.1951,N,01910.9779,E,2,18,0.7,129.2,M,45.3,M,,0000*49
$GNRMC,152708.600,A,4727.1951,N,01910.9779,E,015.5,209.3,300515,,,D*72
$GNGGA,152708.700,4727.1947,N,01910.9776,E,2,18,0.7,129.3,M,45.3,M,,0000*41
$GNRMC,152708.700,A,4727.1947,N,01910.9776,E,015.6,208.6,300515,,,D*7C
$GNGGA,152708.800,4727.1943,N,01910.9772,E,2,18,0.7,129.3,M,45.3,M,,0000*4E
$GNRMC,152708.800,A,4727.1943,N,01910.9772,E,015.6,210.2,300515,,,D*7E
$GNGGA,152708.900,4727.1939,N,01910.9769,E,2,18,0.7,129.3,M,45.3,M,,0000*48
$GNGLL,4727.1939,N,01910.9769,E,152708.900,A,D*4E
$GNGSA,A,3,25,29,31,20,02,05,10,12,21,26,,,1.2,0.7,1.0*27
$GNGSA,A,3,87,88,86,77,78,71,79,70,,,,,1.2,0.7,1.0*28
$GNRMC,152708.900,A,4727.1939,N,01910.9769,E,015.8,209.6,300515,,,D*7A
$GNVTG,209.6,T,,M,015.8,N,029.3,K,D*1F
$GNZDA,152708.900,30,05,2015,00,00*48
$GNGGA,152709.000,4727.1935,N,01910.9766,E,2,18,0.7,129.4,M,45.3,M,,0000*44
$GNRMC,152709.000,A,4727.1935,N,01910.9766,E,016.0,208.1,300515,,,D*7C
$GNGGA,152709.100,4727.1932,N,01910.9763,E,2,18,0.7,129.4,M,45.3,M,,0000*47
$GNRMC,152709.100,A,4727.1932,N,01910.9763,E,015.9,210.4,300515,,,D*79
$GNGGA,152709.200,4727.1928,N,01910.9760,E,2,19,0.6,129.4,M,45.3,M,,0000*4C
$GNRMC,152709.200,A,4727.1928,N,01910.9760,E,016.0,210.4,300515,,,D*78
$GNGGA,152709.300,4727.1924,N,01910.9756,E,2,19,0.6,129.4,M,45.3,M,,0000*44
$GNRMC,152709.300,A,4727.1924,N,01910.9756,E,016.1,209.2,300515,,,D*7F
$GNGGA,152709.400,4727.1920,N,01910.9753,E,2,19,0.6,129.4,M,45.3,M,,0000*42
$GNRMC,152709.400,A,4727.1920,N,01910.9753,E,016.0,209.7,300515,,,D*7D
$GNGGA,152709.500,4727.1916,N,01910.9750,E,2,19,0.6,129.4,M,45.3,M,,0000*45
$GNRMC,152709.500,A,4727.1916,N,01910.9750,E,016.3,210.2,300515,,,D*74
$GNGGA,152709.600,4727.1912,N,01910.9747,E,2,19,0.6,129.4,M,45.3,M,,0000*44
$GNRMC,152709.600,A,4727.1912,N,01910.9747,E,016.4,210.4,300515,,,D*74
$GNGGA,152709.700,4727.1908,N,01910.9743,E,2,19,0.6,129.4,M,45.3,M,,0000*4A
$GNRMC,152709.700,A,4727.1908,N,01910.9743,E,016.5,210.6,300515,,,D*79
$GNGGA,152709.800,4727.1904,N,01910.9740,E,2,19,0.6,129.4,M,45.3,M,,0000*4A
$GNRMC,152709.800,A,4727.1904,N,01910.9740,E,016.4,210.3,300515,,,D*7D
$GNGGA,152709.900,4727.1900,N,01910.9736,E,2,19,0.6,129.4,M,45.3,M,,0000*4E
$GNGLL,4727.1900,N,01910.9736,E,152709.900,A,D*4F
$GNGSA,A,3,25,29,31,20,02,05,10,12,21,26,,,1.1,0.6,0.9*2D
$GNGSA,A,3,87,88,86,77,78,81,71,79,70,,,,1.1,0.6,0.9*2B
$GNRMC,152709.900,A,4727.1900,N,01910.9736,E,016.7,209.4,300515,,,D*75
$GNVTG,209.4,T,,M,016.7,N,030.8,K,D*12
$GNZDA,152709.900,30,05,2015,00,00*49
$GNGGA,152710.000,4727.1896,N,01910.9733,E,2,19,0.6,129.4,M,45.3,M,,0000*44
$GNRMC,152710.000,A,4727.1896,N,01910.9733,E,016.6,210.1,300515,,,D*73
$GNGGA,152710.100,4727.1892,N,01910.9730,E,2,19,0.6,129.4,M,45.3,M,,0000*42
$GNRMC,152710.100,A,4727.1892,N,01910.9730,E,016.4,211.0,300515,,,D*77
$GNGGA,152710.200,4727.1888,N,01910.9726,E,2,19,0.6,129.4,M,45.3,M,,0000*4D
$GNRMC,152710.200,A,4727.1888,N,01910.9726,E,016.4,211.0,300515,,,D*78
$GNGGA,152710.300,4727.1884,N,01910.9723,E,2,19,0.6,129.5,M,45.3,M,,0000*44
$GNRMC,152710.300,A,4727.1884,N,01910.9723,E,016.6,210.0,300515,,,D*73
$GNGGA,152710.400,4727.1880,N,01910.9719,E,2,19,0.6,129.5,M,45.3,M,,0000*4E
$GNRMC,152710.400,A,4727.1880,N,01910.9719,E,016.4,211.0,300515,,,D*7A
$GNGGA,152710.500,4727.1876,N,01910.9716,E,2,19,0.6,129.5,M,45.3,M,,0000*49
$GNRMC,152710.500,A,4727.1876,N,01910.9716,E,016.5,210.2,300515,,,D*7F
$GNGGA,152710.600,4727.1872,N,01910.9712,E,2,19,0.6,129.5,M,45.3,M,,0000*4A
$GNRMC,152710.600,A,4727.1872,N,01910.9712,E,016.5,211.0,300515,,,D*7F
$GNGGA,152710.700,4727.1869,N,01910.9709,E,2,19,0.6,129.5,M,45.3,M,,0000*4B
$GNRMC,152710.700,A,4727.1869,N,01910.9709,E,016.2,209.7,300515,,,D*77
$GNGGA,152710.800,4727.1865,N,01910.9706,E,2,19,0.6,129.5,M,45.3,M,,0000*47
$GNRMC,152710.800,A,4727.1865,N,01910.9706,E,016.3,209.4,300515,,,D*79
$GNGGA,152710.900,4727.1861,N,01910.9702,E,2,19,0.6,129.5,M,45.3,M,,0000*46
$GNGLL,4727.1861,N,01910.9702,E,152710.900,A,D*46
$GNGSA,A,3,25,29,31,20,02,05,10,12,21,26,,,1.1,0.6,0.9*2D
$GNGSA,A,3,87,88,86,77,78,81,71,79,70,,,,1.1,0.6,0.9*2B
$GPGSV,4,1,13,29,83,337,46,25,66,116,45,31,47,285,47,39,35,172,40*7A
$GPGSV,4,2,13,08,35,303,45,21,30,193,40,02,28,050,45,12,27,117,47*73
$GPGSV,4,3,13,26,18,301,32,05,17,091,34,20,17,113,42,10,07,034,29*75
$GPGSV,4,4,13,23,01,342,*4E
$GLGSV,3,1,11,78,61,309,40,88,60,254,44,87,60,032,50,77,54,177,42*6F
$GLGSV,3,2,11,81,19,237,38,79,15,330,30,71,12,048,43,86,07,049,30*68
$GLGSV,3,3,11,70,06,001,24,76,03,158,13,72,02,095,*54
$GNRMC,152710.900,A,4727.1861,N,01910.9702,E,016.6,211.6,300515,,,D*76
$GNVTG,211.6,T,,M,016.6,N,030.7,K,D*17
$GNZDA,152710.900,30,05,2015,00,00*41
$GNGGA,152711.000,4727.1857,N,01910.9699,E,2,19,0.6,129.5,M,45.3,M,,0000*48
$GNRMC,152711.000,A,4727.1857,N,01910.9699,E,016.1,211.3,300515,,,D*7A
$GNGGA,152711.100,4727.1853,N,01910.9696,E,2,19,0.6,129.5,M,45.3,M,,0000*42
$GNRMC,152711.100,A,4727.1853,N,01910.9696,E,016.4,210.2,300515,,,D*75
$GNGGA,152711.200,4727.1849,N,01910.9692,E,2,19,0.6,129.5,M,45.3,M,,0000*4E
$GNRMC,152711.200,A,4727.1849,N,01910.9692,E,016.4,211.5,300515,,,D*7F
$GNGGA,152711.300,4727.1845,N,01910.9689,E,2,19,0.6,129.5,M,45.3,M,,0000*49
$GNRMC,152711.300,A,4727.1845,N,01910.9689,E,015.8,210.2,300515,,,D*71
$GNGGA,152711.400,4727.1841,N,01910.9685,E,2,19,0.6,129.5,M,45.3,M,,0000*46
$GNRMC,152711.400,A,4727.1841,N,01910.9685,E,016.1,211.4,300515,,,D*73
$GNGGA,152711.500,4727.1837,N,01910.9682,E,2,19,0.6,129.5,M,45.3,M,,0000*41
$GNRMC,152711.500,A,4727.1837,N,01910.9682,E,016.3,210.8,300515,,,D*7B
$GNGGA,152711.600,4727.1833,N,01910.9679,E,2,19,0.6,129.5,M,45.3,M,,0000*42
$GNRMC,152711.600,A,4727.1833,N,01910.9679,E,016.2,210.9,300515,,,D*78
$GNGGA,152711.700,4727.1829,N,01910.9675,E,2,19,0.6,129.5,M,45.3,M,,0000*44
$GNRMC,152711.700,A,4727.1829,N,01910.9675,E,016.0,211.5,300515,,,D*71
$GNGGA,152711.800,4727.1826,N,01910.9672,E,2,18,0.6,129.5,M,45.3,M,,0000*42
$GNRMC,152711.800,A,4727.1826,N,01910.9672,E,015.8,212.2,300515,,,D*79
$GNGGA,152711.900,4727.1822,N,01910.9669,E,2,18,0.6,129.5,M,45.3,M,,0000*4D
$GNGLL,4727.1822,N,01910.9669,E,152711.900,A,D*4C
$GNGSA,A,3,25,29,31,20,02,05,12,21,26,,,,1.1,0.6,0.9*2C
$GNGSA,A,3,87,88,86,77,78,81,71,79,70,,,,1.1,0.6,0.9*2B
$GNRMC,152711.900,A,4727.1822,N,01910.9669,E,015.8,209.3,300515,,,D*7D
$GNVTG,209.3,T,,M,015.8,N,029.3,K,D*1A
$GNZDA,152711.900,30,05,2015,00,00*40
$GNGGA,152712.000,4727.1818,N,01910.9666,E,2,18,0.6,129.5,M,45.3,M,,0000*41
$GNRMC,152712.000,A,4727.1818,N,01910.9666,E,015.9,209.9,300515,,,D*7A
$GNGGA,152712.100,4727.1814,N,01910.9663,E,2,18,0.6,129.6,M,45.3,M,,0000*4A
$GNRMC,152712.100,A,4727.1814,N,01910.9663,E,015.8,210.0,300515,,,D*72
$GNGGA,152712.200,4727.1810,N,01910.9659,E,2,18,0.6,129.6,M,45.3,M,,0000*44
$GNRMC,152712.200,A,4727.1810,N,01910.9659,E,015.8,211.2,300515,,,D*7F
$GNGGA,152712.300,4727.1806,N,01910.9656,E,2,18,0.6,129.6,M,45.3,M,,0000*4D
$GNRMC,152712.300,A,4727.1806,N,01910.9656,E,015.7,210.7,300515,,,D*7D
$GNGGA,152712.400,4727.1803,N,01910.9653,E,2,18,0.6,129.6,M,45.3,M,,0000*4A
$GNRMC,152712.400,A,4727.1803,N,01910.9653,E,015.6,210.8,300515,,,D*74
$GNGGA,152712.500,4727.1799,N,01910.9650,E,2,19,0.6,129.6,M,45.3,M,,0000*45
$GNRMC,152712.500,A,4727.1799,N,01910.9650,E,015.5,211.1,300515,,,D*71
$GNGGA,152712.600,4727.1795,N,01910.9647,E,2,19,0.6,129.6,M,45.3,M,,0000*4C
$GNRMC,152712.600,A,4727.1795,N,01910.9647,E,015.4,211.0,300515,,,D*78
$GNGGA,152712.700,4727.1791,N,01910.9643,E,2,19,0.6,129.7,M,45.3,M,,0000*4C
$GNRMC,152712.700,A,4727.1791,N,01910.9643,E,015.6,211.6,300515,,,D*7D
$GNGGA,152712.800,4727.1788,N,01910.9640,E,2,19,0.6,129.7,M,45.3,M,,0000*48
$GNRMC,152712.800,A,4727.1788,N,01910.9640,E,015.5,211.9,300515,,,D*75
$GNGGA,152712.900,4727.1784,N,01910.9637,E,2,19,0.6,129.7,M,45.3,M,,0000*45
$GNGLL,4727.1784,N,01910.9637,E,152712.900,A,D*47
$GNGSA,A,3,25,29,31,20,02,05,10,12,21,26,,,1.1,0.6,0.9*2D
$GNGSA,A,3,87,88,86,77,78,81,71,79,70,,,,1.1,0.6,0.9*2B
$GNRMC,152712.900,A,4727.1784,N,01910.9637,E,015.6,211.3,300515,,,D*71
$GNVTG,211.3,T,,M,015.6,N,028.8,K,D*17
$GNZDA,152712.900,30,05,2015,00,00*43
$GNGGA,152713.000,4727.1780,N,01910.9633,E,2,19,0.6,129.7,M,45.3,M,,0000*4D
$GNRMC,152713.000,A,4727.1780,N,01910.9633,E,015.4,210.0,300515,,,D*79
$GNGGA,152713.100,4727.1777,N,01910.9630,E,2,19,0.6,129.7,M,45.3,M,,0000*47
$GNRMC,152713.100,A,4727.1777,N,01910.9630,E,015.5,209.4,300515,,,D*7E
$GNGGA,152713.200,4727.1773,N,01910.9627,E,2,19,0.6,129.7,M,45.3,M,,0000*46
$GNRMC,152713.200,A,4727.1773,N,01910.9627,E,015.6,210.1,300515,,,D*71
$GNGGA,152713.300,4727.1769,N,01910.9624,E,2,19,0.6,129.8,M,45.3,M,,0000*40
$GNRMC,152713.300,A,4727.1769,N,01910.9624,E,015.4,209.1,300515,,,D*72
$GNGGA,152713.400,4727.1766,N,01910.9621,E,2,19,0.6,129.8,M,45.3,M,,0000*4D
$GNRMC,152713.400,A,4727.1766,N,01910.9621,E,015.7,209.2,300515,,,D*7F
$GNGGA,152713.500,4727.1762,N,01910.9618,E,2,19,0.6,129.8,M,45.3,M,,0000*42
$GNRMC,152713.500,A,4727.1762,N,01910.9618,E,015.3,209.4,300515,,,D*72
$GNGGA,152713.600,4727.1758,N,01910.9615,E,2,19,0.6,129.8,M,45.3,M,,0000*45
$GNRMC,152713.600,A,4727.1758,N,01910.9615,E,015.2,210.8,300515,,,D*70
$GNGGA,152713.700,4727.1755,N,01910.9611,E,2,19,0.6,129.8,M,45.3,M,,0000*4D
$GNRMC,152713.700,A,4727.1755,N,01910.9611,E,015.5,210.2,300515,,,D*75
$GNGGA,152713.800,4727.1751,N,01910.9608,E,2,19,0.6,129.8,M,45.3,M,,0000*4E
$GNRMC,152713.800,A,4727.1751,N,01910.9608,E,015.6,208.8,300515,,,D*76
$GNGGA,152713.900,4727.1747,N,01910.9605,E,2,19,0.6,129.8,M,45.3,M,,0000*45
$GNGLL,4727.1747,N,01910.9605,E,152713.900,A,D*48
$GNGSA,A,3,25,29,31,20,02,05,10,12,21,26,,,1.1,0.6,0.9*2D
$GNGSA,A,3,87,88,86,77,78,81,71,79,70,,,,1.1,0.6,0.9*2B
$GPGSV,4,1,13,29,83,341,46,25,66,116,45,31,47,284,45,39,35,172,40*78
$GPGSV,4,2,13,08,35,303,45,21,30,193,31,02,28,050,45,12,27,117,38*7D
$GPGSV,4,3,13,26,18,301,31,05,17,091,43,20,17,113,33,10,07,034,30*78
$GPGSV,4,4,13,23,01,342,*4E
$GLGSV,3,1,11,78,61,309,39,88,60,254,43,87,60,032,50,77,54,177,41*65
$GLGSV,3,2,11,81,19,237,41,79,15,330,35,71,12,048,46,86,07,049,27*60
$GLGSV,3,3,11,70,06,001,22,76,03,158,18,72,02,095,*59
$GNRMC,152713.900,A,4727.1747,N,01910.9605,E,015.7,209.1,300515,,,D*74
$GNVTG,209.1,T,,M,015.7,N,029.1,K,D*15
$GNZDA,152713.900,30,05,2015,00,00*42
$GNGGA,152714.000,4727.1743,N,01910.9602,E,2,19,0.6,129.8,M,45.3,M,,0000*48
$GNRMC,152714.000,A,4727.1743,N,01910.9602,E,015.8,208.7,300515,,,D*71
$GNGGA,152714.100,4727.1739,N,01910.9599,E,2,19,0.6,129.8,M,45.3,M,,0000*45
$GNRMC,152714.100,A,4727.1739,N,01910.9599,E,015.9,209.1,300515,,,D*7A
$GNGGA,152714.200,4727.1735,N,01910.9596,E,2,19,0.6,129.8,M,45.3,M,,0000*45
$GNRMC,152714.200,A,4727.1735,N,01910.9596,E,015.9,210.0,300515,,,D*73
$GNGGA,152714.300,4727.1732,N,01910.9593,E,2,19,0.6,129.8,M,45.3,M,,0000*46
$GNRMC,152714.300,A,4727.1732,N,01910.9593,E,015.7,209.8,300515,,,D*7E
$GNGGA,152714.400,4727.1728,N,01910.9590,E,2,19,0.6,129.8,M,45.3,M,,0000*49
$GNRMC,152714.400,A,4727.1728,N,01910.9590,E,015.5,210.5,300515,,,D*76
$GNGGA,152714.500,4727.1724,N,01910.9586,E,2,19,0.6,129.8,M,45.3,M,,0000*43
$GNRMC,152714.500,A,4727.1724,N,01910.9586,E,015.4,208.9,300515,,,D*78
$GNGGA,152714.600,4727.1720,N,01910.9583,E,2,19,0.6,129.8,M,45.3,M,,0000*41
$GNRMC,152714.600,A,4727.1720,N,01910.9583,E,015.7,211.8,300515,,,D*70
$GNGGA,152714.700,4727.1717,N,01910.9580,E,2,19,0.6,129.8,M,45.3,M,,0000*47
$GNRMC,152714.700,A,4727.1717,N,01910.9580,E,015.8,209.4,300515,,,D*7C
$GNGGA,152714.800,4727.1713,N,01910.9577,E,2,19,0.6,129.8,M,45.3,M,,0000*44
$GNRMC,152714.800,A,4727.1713,N,01910.9577,E,016.3,209.8,300515,,,D*7B
$GNGGA,152714.900,4727.1709,N,01910.9573,E,2,19,0.6,129.8,M,45.3,M,,0000*4A
$GNGLL,4727.1709,N,01910.9573,E,152714.900,A,D*47
$GNGSA,A,3,25,29,31,20,02,05,10,12,21,26,,,1.1,0.6,0.9*2D
$GNGSA,A,3,87,88,86,77,78,81,71,79,70,,,,1.1,0.6,0.9*2B
$GNRMC,152714.900,A,4727.1709,N,01910.9573,E,016.4,206.8,300515,,,D*7D
$GNVTG,206.8,T,,M,016.4,N,030.3,K,D*19
$GNZDA,152714.900,30,05,2015,00,00*45
$GNGGA,152715.000,4727.1705,N,01910.9570,E,2,19,0.6,129.8,M,45.3,M,,0000*4D
$GNRMC,152715.000,A,4727.1705,N,01910.9570,E,015.6,209.6,300515,,,D*7A
$GNGGA,152715.100,4727.1701,N,01910.9567,E,2,19,0.6,129.8,M,45.3,M,,0000*4E
$GNRMC,152715.100,A,4727.1701,N,01910.9567,E,015.4,211.7,300515,,,D*73
$GNGGA,152715.200,4727.1698,N,01910.9564,E,2,19,0.6,129.8,M,45.3,M,,0000*4F
$GNRMC,152715.200,A,4727.1698,N,01910.9564,E,016.0,209.2,300515,,,D*79
$GNGGA,152715.300,4727.1694,N,01910.9561,E,2,19,0.6,129.8,M,45.3,M,,0000*47
$GNRMC,152715.300,A,4727.1694,N,01910.9561,E,015.9,210.3,300515,,,D*72
$GNGGA,152715.400,4727.1690,N,01910.9557,E,2,19,0.6,129.8,M,45.3,M,,0000*41
$GNRMC,152715.400,A,4727.1690,N,01910.9557,E,015.4,210.6,300515,,,D*7C
$GNGGA,152715.500,4727.1686,N,01910.9554,E,2,19,0.6,129.8,M,45.3,M,,0000*44
$GNRMC,152715.500,A,4727.1686,N,01910.9554,E,015.4,210.1,300515,,,D*7E
$GNGGA,152715.600,4727.1682,N,01910.9551,E,2,19,0.6,129.8,M,45.3,M,,0000*46
$GNRMC,152715.600,A,4727.1682,N,01910.9551,E,015.1,217.1,300515,,,D*7E
$GNGGA,152715.700,4727.1679,N,01910.9548,E,2,19,0.6,129.8,M,45.3,M,,0000*4B
$GNRMC,152715.700,A,4727.1679,N,01910.9548,E,015.7,211.3,300515,,,D*71
$GNGGA,152715.800,4727.1675,N,01910.9544,E,2,19,0.6,129.8,M,45.3,M,,0000*44
$GNRMC,152715.800,A,4727.1675,N,01910.9544,E,015.8,209.6,300515,,,D*7D
$GNGGA,152715.900,4727.1671,N,01910.9541,E,2,19,0.6,129.8,M,45.3,M,,0000*44
$GNGLL,4727.1671,N,01910.9541,E,152715.900,A,D*49
$GNGSA,A,3,25,29,31,20,02,05,10,12,21,26,,,1.1,0.6,0.9*2D
$GNGSA,A,3,87,88,86,77,78,81,71,79,70,,,,1.1,0.6,0.9*2B
$GNRMC,152715.900,A,4727.1671,N,01910.9541,E,015.7,208.6,300515,,,D*73
$GNVTG,208.6,T,,M,015.7,N,029.1,K,D*13
$GNZDA,152715.900,30,05,2015,00,00*44
$GNGGA,152716.000,4727.1667,N,01910.9538,E,2,19,0.6,129.8,M,45.3,M,,0000*47
$GNRMC,152716.000,A,4727.1667,N,01910.9538,E,015.7,209.1,300515,,,D*76
$GNGGA,152716.100,4727.1664,N,01910.9535,E,2,19,0.6,129.8,M,45.3,M,,0000*48
$GNRMC,152716.100,A,4727.1664,N,01910.9535,E,016.1,211.7,300515,,,D*73
$GNGGA,152716.200,4727.1660,N,01910.9532,E,2,19,0.6,129.9,M,45.3,M,,0000*49
$GNRMC,152716.200,A,4727.1660,N,01910.9532,E,015.7,209.9,300515,,,D*71
$GNGGA,152716.300,4727.1656,N,01910.9529,E,2,19,0.6,129.9,M,45.3,M,,0000*47
$GNRMC,152716.300,A,4727.1656,N,01910.9529,E,015.7,209.5,300515,,,D*73
$GNGGA,152716.400,4727.1652,N,01910.9526,E,2,19,0.6,129.9,M,45.3,M,,0000*4B
$GNRMC,152716.400,A,4727.1652,N,01910.9526,E,015.7,209.1,300515,,,D*7B
$GNGGA,152716.500,4727.1648,N,01910.9522,E,2,19,0.6,129.9,M,45.3,M,,0000*45
